City,Country,Date,Latitude,Longitude,Max Temperature (F),Humidity (%),Cloudiness (%),Wind Speed (mph)
ostrovnoy,ru,2020-03-13 22:05:53,68.05,39.51,21.4,90.0,100.0,22.79
poum,nc,2020-03-13 22:05:53,-20.23,164.02,81.63,83.0,100.0,10.31
vaini,to,2020-03-13 22:05:53,-21.2,-175.2,80.6,83.0,75.0,14.99
saint-philippe,re,2020-03-13 22:05:53,-21.36,55.77,78.8,94.0,75.0,23.04
conde,br,2020-03-13 22:05:53,-7.26,-34.91,78.8,88.0,100.0,2.24
pochutla,mx,2020-03-13 22:05:54,15.74,-96.47,81.0,74.0,40.0,9.17
port alfred,za,2020-03-13 22:05:54,-33.59,26.89,66.99,97.0,1.0,1.99
tiksi,ru,2020-03-13 22:05:54,71.69,128.87,-15.86,82.0,0.0,4.47
tuktoyaktuk,ca,2020-03-13 22:03:05,69.45,-133.04,21.2,85.0,90.0,29.97
butaritari,ki,2020-03-13 22:05:54,3.07,172.79,83.89,71.0,100.0,10.25
oxford,nz,2020-03-13 22:05:54,-43.3,172.18,66.99,72.0,0.0,14.99
carnarvon,au,2020-03-13 22:05:54,-24.87,113.63,84.2,74.0,40.0,11.41
torva,ee,2020-03-13 22:05:54,58.0,25.93,28.99,68.0,40.0,12.75
abu kamal,sy,2020-03-13 22:05:54,34.45,40.92,59.22,69.0,100.0,16.37
rongcheng,cn,2020-03-13 22:05:54,30.63,117.85,57.0,73.0,68.0,2.24
rikitea,pf,2020-03-13 22:05:54,-23.12,-134.97,77.11,74.0,24.0,12.35
chokurdakh,ru,2020-03-13 22:05:55,70.63,147.92,-15.59,96.0,100.0,9.22
ratnagiri,in,2020-03-13 22:05:55,16.98,73.3,74.8,40.0,46.0,1.34
te anau,nz,2020-03-13 22:05:55,-45.42,167.72,59.54,62.0,100.0,4.99
hilo,us,2020-03-13 22:05:55,19.73,-155.09,75.99,83.0,90.0,9.17
albany,au,2020-03-13 22:05:55,-35.02,117.89,71.6,68.0,75.0,19.46
lebu,cl,2020-03-13 22:05:55,-37.62,-73.65,49.59,94.0,0.0,3.98
ribeira grande,pt,2020-03-13 22:05:55,38.52,-28.7,56.14,78.0,64.0,4.56
bambous virieux,mu,2020-03-13 22:05:55,-20.34,57.76,77.0,100.0,75.0,11.77
puerto ayora,ec,2020-03-13 22:05:55,-0.74,-90.35,79.0,83.0,53.0,8.01
buala,sb,2020-03-13 22:05:56,-8.14,159.59,83.73,75.0,100.0,13.24
liwale,tz,2020-03-13 22:05:56,-9.77,37.93,69.19,98.0,35.0,2.13
warragul,au,2020-03-13 22:05:56,-38.17,145.93,64.99,49.0,65.0,5.99
jamestown,sh,2020-03-13 22:05:56,-15.94,-5.72,76.26,78.0,66.0,13.62
grants pass,us,2020-03-13 22:05:34,42.44,-123.33,50.0,75.0,90.0,8.05
mahebourg,mu,2020-03-13 22:05:56,-20.41,57.7,77.0,100.0,75.0,7.72
hermanus,za,2020-03-13 22:05:56,-34.42,19.23,60.01,94.0,0.0,3.0
dikson,ru,2020-03-13 22:05:56,73.51,80.55,31.8,96.0,100.0,20.6
ushuaia,ar,2020-03-13 22:01:01,-54.8,-68.3,46.4,93.0,68.0,5.14
cernat,ro,2020-03-13 22:05:57,45.95,26.03,42.01,75.0,39.0,8.01
provideniya,ru,2020-03-13 22:05:57,64.38,-173.3,28.09,97.0,100.0,17.56
hanko,fi,2020-03-13 22:05:57,59.83,22.95,27.0,70.0,100.0,8.99
bengkulu,id,2020-03-13 22:05:57,-3.8,102.27,87.53,59.0,100.0,3.0
kavieng,pg,2020-03-13 22:05:57,-2.57,150.8,83.39,78.0,5.0,13.49
mgandu,tz,2020-03-13 22:05:57,-5.95,34.13,62.01,96.0,100.0,1.39
bandarbeyla,so,2020-03-13 22:05:57,9.49,50.81,78.69,80.0,85.0,16.84
busselton,au,2020-03-13 22:05:58,-33.65,115.33,84.99,30.0,100.0,3.56
punta arenas,cl,2020-03-13 22:05:58,-53.15,-70.92,51.01,70.0,57.0,16.11
kodiak,us,2020-03-13 22:05:58,57.79,-152.41,37.4,59.0,1.0,4.7
hithadhoo,mv,2020-03-13 22:05:58,-0.6,73.08,83.64,58.0,20.0,7.29
cap-aux-meules,ca,2020-03-13 22:05:58,47.38,-61.86,30.2,74.0,90.0,34.45
hobart,au,2020-03-13 22:05:58,-42.88,147.33,60.01,47.0,40.0,13.87
flinders,au,2020-03-13 22:05:58,-34.58,150.86,55.99,82.0,90.0,6.93
dingle,ie,2020-03-13 22:05:58,52.14,-10.27,47.1,75.0,100.0,20.96
labuhan,id,2020-03-13 22:05:58,-6.88,112.21,85.6,69.0,94.0,3.85
bandundu,cd,2020-03-13 22:05:59,-3.32,17.37,73.36,82.0,100.0,3.56
cidreira,br,2020-03-13 22:05:59,-30.18,-50.21,75.36,89.0,0.0,15.64
liverpool,ca,2020-03-13 22:05:59,44.03,-64.72,48.0,89.0,100.0,10.0
xining,cn,2020-03-13 22:01:43,36.62,101.77,34.12,35.0,66.0,2.55
la palma,pa,2020-03-13 22:05:59,8.4,-78.15,72.88,92.0,82.0,4.83
nanortalik,gl,2020-03-13 22:05:59,60.14,-45.24,23.27,71.0,100.0,12.55
atuona,pf,2020-03-13 22:05:59,-9.8,-139.03,82.8,67.0,34.0,9.15
hamilton,bm,2020-03-13 22:05:59,32.29,-64.78,68.0,77.0,40.0,6.93
esperance,au,2020-03-13 22:05:59,-33.87,121.9,68.0,82.0,90.0,14.99
caravelas,br,2020-03-13 22:06:00,-17.71,-39.25,80.31,77.0,99.0,6.62
broken hill,au,2020-03-13 22:06:00,-31.95,141.43,62.6,26.0,0.0,25.28
orlik,ru,2020-03-13 22:06:00,52.52,99.83,18.23,75.0,63.0,3.85
barrow,us,2020-03-13 22:03:19,71.29,-156.79,24.8,85.0,90.0,35.57
kruisfontein,za,2020-03-13 22:06:00,-34.0,24.73,63.21,94.0,4.0,5.28
luderitz,na,2020-03-13 22:06:00,-26.65,15.16,66.2,82.0,0.0,8.05
juneau,us,2020-03-13 22:05:19,58.3,-134.42,32.0,46.0,75.0,3.36
iqaluit,ca,2020-03-13 22:06:00,63.75,-68.51,-23.01,67.0,5.0,16.11
vardo,no,2020-03-13 22:06:00,70.37,31.11,22.32,75.0,100.0,26.69
san onofre,co,2020-03-13 22:06:01,9.74,-75.53,77.63,70.0,77.0,9.24
pisco,pe,2020-03-13 22:06:01,-13.7,-76.22,73.4,83.0,46.0,14.99
muli,mv,2020-03-13 22:06:01,2.92,73.57,82.65,77.0,26.0,8.08
fare,pf,2020-03-13 22:06:01,-16.7,-151.02,83.14,78.0,99.0,16.06
naze,jp,2020-03-13 22:06:01,28.37,129.48,64.4,77.0,75.0,14.99
erenhot,cn,2020-03-13 22:06:01,43.65,111.98,32.83,33.0,0.0,16.64
auki,sb,2020-03-13 22:06:01,-8.77,160.7,84.49,79.0,84.0,17.65
cedar city,us,2020-03-13 22:01:35,37.68,-113.06,37.4,93.0,90.0,13.87
ancud,cl,2020-03-13 22:06:02,-41.87,-73.82,48.2,100.0,6.0,4.7
cayenne,gf,2020-03-13 22:06:02,4.93,-52.33,80.6,78.0,20.0,9.17
mount gambier,au,2020-03-13 22:06:02,-37.83,140.77,62.6,48.0,90.0,18.34
araouane,ml,2020-03-13 22:06:02,18.9,-3.53,72.77,12.0,0.0,5.68
puerto escondido,mx,2020-03-13 22:06:02,15.85,-97.07,80.6,88.0,40.0,3.36
cape town,za,2020-03-13 22:06:02,-33.93,18.42,60.01,93.0,75.0,6.93
los llanos de aridane,es,2020-03-13 22:06:02,28.66,-17.92,66.2,72.0,75.0,12.75
kirensk,ru,2020-03-13 22:06:02,57.79,108.11,15.69,85.0,71.0,4.03
norman wells,ca,2020-03-13 22:06:02,65.28,-126.83,8.6,78.0,75.0,3.36
dumai,id,2020-03-13 22:06:03,1.68,101.45,82.87,82.0,8.0,5.5
saldanha,za,2020-03-13 22:06:03,-33.01,17.94,62.6,88.0,51.0,2.24
port elizabeth,za,2020-03-13 22:06:03,-33.92,25.57,62.6,100.0,90.0,12.75
miguel hidalgo,mx,2020-03-13 22:06:03,19.42,-99.2,75.2,31.0,75.0,6.93
itacoatiara,br,2020-03-13 22:03:49,-3.14,-58.44,78.8,94.0,99.0,1.32
atar,mr,2020-03-13 22:06:03,20.52,-13.05,68.22,12.0,0.0,7.76
stephenville,ca,2020-03-13 22:06:03,48.55,-58.58,24.8,62.0,90.0,25.28
kurilsk,ru,2020-03-13 22:06:04,45.23,147.88,28.33,65.0,56.0,7.14
victoria,sc,2020-03-13 22:06:04,-4.62,55.45,80.6,83.0,20.0,4.7
monrovia,lr,2020-03-13 22:03:03,6.3,-10.8,80.6,94.0,75.0,6.71
consett,gb,2020-03-13 22:02:08,54.85,-1.83,42.8,86.0,75.0,5.82
college,us,2020-03-13 22:06:04,64.86,-147.8,24.8,49.0,75.0,3.36
margate,za,2020-03-13 22:06:04,-30.86,30.37,77.2,76.0,57.0,16.28
talnakh,ru,2020-03-13 22:06:04,69.49,88.4,32.0,95.0,75.0,24.61
new norfolk,au,2020-03-13 22:06:04,-42.78,147.06,60.01,47.0,40.0,13.87
bonthe,sl,2020-03-13 22:06:04,7.53,-12.51,78.62,88.0,0.0,5.39
havre-saint-pierre,ca,2020-03-13 22:06:05,50.23,-63.6,15.8,92.0,90.0,24.16
karratha,au,2020-03-13 22:06:05,-20.74,116.85,83.17,70.0,35.0,7.16
bluff,nz,2020-03-13 22:06:05,-46.6,168.33,69.01,56.0,23.0,4.0
fort nelson,ca,2020-03-13 22:06:05,58.81,-122.7,10.4,32.0,40.0,5.82
qaanaaq,gl,2020-03-13 22:06:05,77.48,-69.36,-21.69,56.0,1.0,5.86
port victoria,ke,2020-03-13 22:06:05,0.09,33.98,70.23,84.0,79.0,9.26
mar del plata,ar,2020-03-13 22:04:42,-38.0,-57.56,73.99,78.0,0.0,11.41
jibuti,dj,2020-03-13 22:02:06,11.5,42.5,78.8,74.0,90.0,8.05
nikolskoye,ru,2020-03-13 22:06:06,59.7,30.79,24.8,62.0,20.0,13.42
linxia,cn,2020-03-13 22:06:06,35.6,103.21,35.64,37.0,87.0,5.23
jalu,ly,2020-03-13 22:06:06,29.03,21.55,54.19,88.0,0.0,9.8
bredasdorp,za,2020-03-13 22:06:06,-34.53,20.04,57.2,82.0,8.0,2.24
riyadh,sa,2020-03-13 22:04:42,24.69,46.72,75.2,23.0,75.0,6.93
sisimiut,gl,2020-03-13 22:01:42,66.94,-53.67,-1.05,96.0,100.0,4.27
samarai,pg,2020-03-13 22:06:06,-10.62,150.67,87.58,59.0,100.0,7.18
praia da vitoria,pt,2020-03-13 22:06:06,38.73,-27.07,57.2,82.0,20.0,4.16
roseburg,us,2020-03-13 22:05:08,43.22,-123.34,46.4,75.0,90.0,4.18
bonfim,br,2020-03-13 22:06:07,3.08,-59.95,82.69,59.0,33.0,10.33
muros,es,2020-03-13 22:06:07,42.78,-9.06,46.99,93.0,33.0,3.36
san quintin,mx,2020-03-13 22:06:07,30.48,-115.95,60.1,82.0,7.0,4.03
grindavik,is,2020-03-13 22:06:07,63.84,-22.43,28.4,79.0,75.0,14.99
port lincoln,au,2020-03-13 22:06:07,-34.73,135.87,62.31,62.0,62.0,16.98
shenjiamen,cn,2020-03-13 22:06:07,29.96,122.3,48.69,67.0,28.0,16.98
coquimbo,cl,2020-03-13 22:06:07,-29.95,-71.34,60.8,87.0,50.0,2.24
pangnirtung,ca,2020-03-13 22:06:07,66.15,-65.71,-29.04,100.0,100.0,1.45
san andres,co,2020-03-13 22:04:50,12.58,-81.7,78.8,83.0,20.0,9.17
bobo dioulasso,bf,2020-03-13 22:06:07,11.18,-4.3,80.6,47.0,0.0,6.93
la ronge,ca,2020-03-13 22:06:07,55.1,-105.28,-4.0,64.0,20.0,3.36
pingliang,cn,2020-03-13 22:06:08,35.54,106.69,41.74,25.0,0.0,1.7
the pas,ca,2020-03-13 22:06:08,53.83,-101.25,3.2,59.0,1.0,4.7
buta,cd,2020-03-13 22:06:08,2.79,24.73,68.88,99.0,99.0,2.77
guajara,br,2020-03-13 22:06:08,-2.97,-57.67,77.25,84.0,87.0,2.48
santa teresa,ph,2020-03-13 22:06:08,10.59,122.56,85.68,62.0,0.0,12.08
manica,mz,2020-03-13 22:06:08,-18.94,32.88,66.52,95.0,7.0,1.68
paita,pe,2020-03-13 22:06:08,-5.09,-81.11,80.01,66.0,74.0,7.58
rodrigues alves,br,2020-03-13 22:06:08,-7.74,-72.65,78.04,78.0,100.0,1.39
thompson,ca,2020-03-13 22:06:08,55.74,-97.86,1.4,45.0,75.0,10.29
palmer,us,2020-03-13 22:06:09,42.16,-72.33,46.0,45.0,1.0,16.11
saskylakh,ru,2020-03-13 22:06:09,71.92,114.08,-15.9,90.0,33.0,19.19
klaksvik,fo,2020-03-13 22:06:09,62.23,-6.59,37.4,93.0,100.0,9.17
severo-kurilsk,ru,2020-03-13 22:06:09,50.68,156.12,22.39,91.0,82.0,30.51
ust-ilimsk,ru,2020-03-13 22:06:09,58.0,102.66,32.85,98.0,98.0,7.27
filingue,ne,2020-03-13 22:06:09,14.35,3.32,72.1,14.0,0.0,13.67
tromso,no,2020-03-13 22:06:09,69.65,18.96,19.4,85.0,90.0,2.24
sorland,no,2020-03-13 22:06:09,67.67,12.69,30.09,57.0,90.0,15.43
linqiong,cn,2020-03-13 22:06:09,30.42,103.46,64.0,51.0,76.0,3.89
gibara,cu,2020-03-13 22:06:10,21.11,-76.13,75.2,78.0,2.0,9.17
castro,cl,2020-03-13 22:06:10,-42.47,-73.77,48.2,100.0,13.0,4.7
usinsk,ru,2020-03-13 22:06:10,65.99,57.53,26.74,97.0,100.0,5.61
padang,id,2020-03-13 22:06:10,-0.95,100.35,83.84,58.0,34.0,2.28
tutoia,br,2020-03-13 22:06:10,-2.76,-42.27,71.58,97.0,100.0,8.37
biak,id,2020-03-13 22:06:10,-0.91,122.88,84.16,66.0,100.0,1.52
la trinitaria,mx,2020-03-13 22:06:10,16.12,-92.05,73.26,59.0,44.0,10.58
caceres,br,2020-03-13 22:06:10,-16.07,-57.68,76.69,80.0,0.0,3.47
horasan,tr,2020-03-13 22:06:10,40.05,42.17,38.52,92.0,100.0,3.13
khatanga,ru,2020-03-13 22:06:11,71.97,102.5,3.15,84.0,100.0,17.02
wuan,cn,2020-03-13 22:06:11,31.68,112.0,61.38,41.0,0.0,2.48
torrox,es,2020-03-13 22:06:11,36.76,-3.95,60.8,87.0,75.0,3.36
alta floresta,br,2020-03-13 22:06:11,-9.88,-56.09,72.9,97.0,100.0,6.93
carlsbad,us,2020-03-13 22:06:11,33.16,-117.35,62.6,87.0,90.0,5.46
strezhevoy,ru,2020-03-13 22:06:11,60.73,77.59,35.6,74.0,90.0,15.66
netrakona,bd,2020-03-13 22:06:11,24.88,90.72,81.95,44.0,63.0,5.57
narrabri,au,2020-03-13 22:06:11,-30.32,149.78,81.0,30.0,0.0,10.29
kalabo,zm,2020-03-13 22:06:11,-14.97,22.68,67.8,96.0,89.0,3.02
gorom-gorom,bf,2020-03-13 22:06:12,14.44,-0.24,74.82,11.0,0.0,10.11
vikulovo,ru,2020-03-13 22:06:12,56.82,70.61,35.08,95.0,100.0,15.99
santa cruz,cr,2020-03-13 22:06:12,10.26,-85.59,82.4,54.0,0.0,11.41
saurimo,ao,2020-03-13 22:06:12,-9.66,20.39,64.92,98.0,100.0,2.19
qarqin,af,2020-03-13 22:06:12,37.42,66.04,56.53,46.0,36.0,14.38
ponta do sol,cv,2020-03-13 22:06:12,17.2,-25.09,71.6,68.0,75.0,13.87
tambovka,ru,2020-03-13 22:06:12,50.1,128.05,23.0,57.0,40.0,4.47
dunedin,nz,2020-03-13 22:06:12,-45.87,170.5,66.0,60.0,0.0,8.01
ulladulla,au,2020-03-13 22:06:12,-35.35,150.47,55.4,82.0,90.0,6.93
guerrero negro,mx,2020-03-13 22:06:12,27.98,-114.06,62.67,71.0,1.0,10.07
bubaque,gw,2020-03-13 22:06:13,11.28,-15.83,81.86,60.0,0.0,12.3
verkhnyaya inta,ru,2020-03-13 22:06:13,65.98,60.31,27.75,97.0,100.0,4.88
havoysund,no,2020-03-13 22:06:13,71.0,24.66,15.8,78.0,100.0,32.21
mangan,in,2020-03-13 22:06:13,27.52,88.53,52.84,61.0,100.0,4.72
kamoke,pk,2020-03-13 22:06:13,31.97,74.22,55.4,93.0,90.0,5.82
chornukhy,ua,2020-03-13 22:06:13,50.27,32.94,38.82,75.0,43.0,8.39
ialibu,pg,2020-03-13 22:06:13,-6.28,143.99,73.4,64.0,40.0,4.7
upernavik,gl,2020-03-13 22:06:14,72.79,-56.15,-11.34,97.0,100.0,3.89
westport,nz,2020-03-13 22:06:14,-41.75,171.6,62.49,67.0,0.0,6.08
kisangani,cd,2020-03-13 22:06:14,0.52,25.2,69.06,98.0,100.0,2.24
novomykolayivka,ua,2020-03-13 22:06:14,47.98,35.91,41.0,86.0,75.0,6.71
viedma,ar,2020-03-13 22:01:18,-40.81,-63.0,67.71,27.0,0.0,31.94
ilulissat,gl,2020-03-13 22:06:14,69.22,-51.1,5.0,71.0,100.0,16.11
east london,za,2020-03-13 22:06:14,-33.02,27.91,72.03,86.0,8.0,15.93
burgeo,ca,2020-03-13 22:06:14,47.62,-57.62,29.07,78.0,100.0,34.65
abong mbang,cm,2020-03-13 22:06:14,3.98,13.18,73.71,72.0,37.0,1.54
quang ngai,vn,2020-03-13 22:05:24,15.12,108.8,77.7,84.0,12.0,9.4
kendari,id,2020-03-13 22:06:15,-3.94,122.5,87.84,66.0,86.0,3.27
akot,in,2020-03-13 22:06:15,21.1,77.06,78.62,16.0,17.0,9.55
okhotsk,ru,2020-03-13 22:06:15,59.38,143.3,8.53,83.0,100.0,15.99
sarangani,ph,2020-03-13 22:06:15,5.4,125.46,81.81,72.0,33.0,15.66
dhidhdhoo,mv,2020-03-13 22:06:15,6.88,73.1,83.43,77.0,0.0,14.23
cherskiy,ru,2020-03-13 22:06:15,68.75,161.3,-9.85,90.0,100.0,10.6
kirakira,sb,2020-03-13 22:06:15,-10.45,161.92,83.23,73.0,100.0,9.55
yellowknife,ca,2020-03-13 22:06:15,62.46,-114.35,-14.01,62.0,5.0,6.93
onalaska,us,2020-03-13 22:06:15,43.88,-91.24,35.6,55.0,1.0,8.05
ozark,us,2020-03-13 22:02:27,37.02,-93.21,46.4,45.0,90.0,10.29
russell,nz,2020-03-13 22:06:16,-35.26,174.12,70.0,69.0,82.0,10.0
medea,dz,2020-03-13 22:06:16,36.26,2.75,60.8,87.0,75.0,4.7
gravdal,no,2020-03-13 22:06:16,68.12,13.5,29.53,55.0,100.0,15.12
flin flon,ca,2020-03-13 22:06:16,54.77,-101.86,0.12,97.0,95.0,4.59
rolla,us,2020-03-13 22:06:16,37.95,-91.77,43.0,41.0,90.0,6.93
yeppoon,au,2020-03-13 22:06:16,-23.13,150.73,84.2,37.0,0.0,11.41
tasiilaq,gl,2020-03-13 22:06:17,65.61,-37.64,6.8,71.0,100.0,1.63
hasaki,jp,2020-03-13 22:06:17,35.73,140.83,41.0,93.0,75.0,16.11
burnie,au,2020-03-13 22:01:29,-41.07,145.92,64.99,43.0,16.0,3.0
maldonado,uy,2020-03-13 22:06:17,-34.67,-54.92,75.99,73.0,0.0,12.75
shieli,kz,2020-03-13 22:06:17,44.17,66.75,48.4,46.0,64.0,9.53
salalah,om,2020-03-13 22:06:17,17.02,54.09,71.6,64.0,23.0,4.7
katsuura,jp,2020-03-13 22:06:17,35.13,140.3,48.2,87.0,75.0,18.34
taltal,cl,2020-03-13 22:06:17,-25.4,-70.48,61.27,85.0,100.0,2.46
kargil,in,2020-03-13 22:06:17,34.57,76.1,10.99,91.0,100.0,1.7
kapaa,us,2020-03-13 22:06:17,22.08,-159.32,77.0,60.0,90.0,9.17
bardiyah,ly,2020-03-13 22:06:18,31.76,25.09,60.03,86.0,0.0,17.67
luangwa,zm,2020-03-13 22:06:18,-15.62,30.42,67.15,94.0,99.0,2.01
general roca,ar,2020-03-13 22:06:18,-39.03,-67.58,66.2,32.0,58.0,8.05
isangel,vu,2020-03-13 22:06:18,-19.55,169.27,91.4,63.0,40.0,9.17
bichura,ru,2020-03-13 22:06:18,50.59,107.6,29.28,88.0,100.0,7.2
kampong chhnang,kh,2020-03-13 22:06:18,12.17,104.55,90.0,52.0,11.0,9.37
port moresby,pg,2020-03-13 22:06:18,-9.44,147.18,89.6,66.0,40.0,11.41
nizwa,om,2020-03-13 22:06:18,22.93,57.53,63.07,21.0,99.0,1.92
torbay,ca,2020-03-13 22:06:18,47.67,-52.73,27.0,73.0,90.0,6.93
port blair,in,2020-03-13 22:02:06,11.67,92.75,81.93,68.0,100.0,9.53
campo verde,br,2020-03-13 22:06:19,-20.42,-54.07,84.2,48.0,27.0,8.05
marti,cu,2020-03-13 22:06:19,22.95,-80.92,73.4,88.0,20.0,9.17
okha,ru,2020-03-13 22:06:19,53.57,142.95,7.52,76.0,0.0,14.03
tongzi,cn,2020-03-13 22:06:19,28.78,105.09,62.08,47.0,83.0,2.24
ixtapa,mx,2020-03-13 22:01:20,20.7,-105.2,77.0,83.0,5.0,6.93
pevek,ru,2020-03-13 22:06:19,69.7,170.31,-3.95,93.0,100.0,8.1
hobyo,so,2020-03-13 22:06:19,5.35,48.53,78.84,82.0,92.0,12.21
recodo,ph,2020-03-13 22:06:19,6.95,121.96,86.0,66.0,20.0,4.7
olinda,br,2020-03-13 22:06:19,-8.01,-34.86,84.2,66.0,40.0,10.29
san patricio,mx,2020-03-13 22:06:19,19.22,-104.7,78.8,83.0,20.0,3.04
zabaykalsk,ru,2020-03-13 22:06:20,49.63,117.32,21.04,80.0,0.0,18.61
touros,br,2020-03-13 22:03:30,-5.2,-35.46,75.2,94.0,75.0,3.36
aklavik,ca,2020-03-13 22:06:20,68.22,-135.01,26.6,63.0,75.0,3.36
mutis,co,2020-03-13 22:03:05,6.23,-77.4,77.54,83.0,100.0,5.32
bethel,us,2020-03-13 22:06:20,41.37,-73.41,57.2,32.0,1.0,14.99
hami,cn,2020-03-13 22:06:20,42.8,93.45,41.36,19.0,71.0,1.88
urucara,br,2020-03-13 22:06:20,-2.54,-57.76,76.39,89.0,71.0,1.03
rudnichnyy,ru,2020-03-13 22:06:20,59.62,52.47,32.47,88.0,100.0,12.53
kaitangata,nz,2020-03-13 22:06:21,-46.28,169.85,54.99,84.0,0.0,8.75
laguna,br,2020-03-13 22:02:50,-28.48,-48.78,66.9,95.0,64.0,1.25
khandyga,ru,2020-03-13 22:06:21,62.67,135.6,-10.12,83.0,0.0,3.33
tucumcari,us,2020-03-13 22:06:21,35.17,-103.72,44.6,93.0,90.0,5.82
kilosa,tz,2020-03-13 22:06:21,-6.83,36.98,69.48,96.0,76.0,1.74
ekhabi,ru,2020-03-13 22:06:21,53.51,142.97,7.52,76.0,0.0,14.03
moose factory,ca,2020-03-13 22:06:21,51.26,-80.61,17.6,85.0,90.0,23.04
sur,om,2020-03-13 22:06:21,22.57,59.53,66.42,27.0,100.0,2.1
nyurba,ru,2020-03-13 22:06:21,63.28,118.33,-7.82,91.0,0.0,5.08
batagay,ru,2020-03-13 22:06:22,67.63,134.63,-14.33,84.0,100.0,1.41
xam nua,la,2020-03-13 22:06:22,20.42,104.04,79.0,58.0,57.0,4.12
bad hofgastein,at,2020-03-13 22:06:22,47.17,13.1,33.8,86.0,20.0,4.7
nouna,bf,2020-03-13 22:06:25,12.73,-3.87,76.32,13.0,0.0,5.01
imeni morozova,ru,2020-03-13 22:06:25,59.98,31.04,24.8,62.0,20.0,13.42
leskovac,rs,2020-03-13 22:06:25,43.0,21.95,50.0,53.0,75.0,11.41
vao,nc,2020-03-13 22:06:25,-22.67,167.48,78.58,89.0,100.0,11.3
baghdad,iq,2020-03-13 22:05:02,33.34,44.4,60.8,67.0,90.0,17.22
gusau,ng,2020-03-13 22:06:25,12.16,6.66,66.81,15.0,0.0,11.99
waterloo,sl,2020-03-13 22:06:25,8.34,-13.07,75.97,88.0,0.0,3.6
ahipara,nz,2020-03-13 22:06:26,-35.17,173.17,69.24,69.0,78.0,6.89
gamba,ga,2020-03-13 22:06:26,-2.65,10.0,77.95,90.0,100.0,2.19
nanyamba,tz,2020-03-13 22:06:26,-10.68,39.83,73.63,97.0,99.0,4.43
jining,cn,2020-03-13 22:06:26,35.41,116.58,57.27,17.0,0.0,13.71
aswan,eg,2020-03-13 22:06:26,24.09,32.91,57.47,52.0,0.0,8.79
berdigestyakh,ru,2020-03-13 22:06:26,62.1,126.7,-7.2,94.0,100.0,7.99
selaphum,th,2020-03-13 22:06:26,16.03,103.94,89.6,55.0,37.0,6.93
san jeronimo,mx,2020-03-13 22:06:26,29.37,-110.79,68.0,52.0,5.0,4.7
beloha,mg,2020-03-13 22:06:26,-25.17,45.05,68.74,91.0,33.0,8.63
severobaykalsk,ru,2020-03-13 22:06:27,55.65,109.32,21.74,82.0,56.0,1.81
svetlyy,ru,2020-03-13 22:06:27,54.67,20.13,33.8,69.0,75.0,22.37
champerico,gt,2020-03-13 22:06:27,14.3,-91.92,78.71,72.0,20.0,4.36
qaqortoq,gl,2020-03-13 22:06:27,60.72,-46.03,21.2,79.0,100.0,3.36
dzheguta,ru,2020-03-13 22:06:27,43.97,42.04,48.4,46.0,100.0,6.55
athabasca,ca,2020-03-13 22:03:18,54.72,-113.29,-4.79,93.0,100.0,6.17
hovd,mn,2020-03-13 22:06:27,48.01,91.64,19.85,46.0,100.0,3.13
yakeshi,cn,2020-03-13 22:06:27,49.28,120.73,17.04,81.0,30.0,17.02
morondava,mg,2020-03-13 22:06:27,-20.28,44.28,72.64,60.0,0.0,6.22
oktyabrskoye,ru,2020-03-13 22:06:28,43.06,44.74,47.57,68.0,94.0,1.59
leo,bf,2020-03-13 22:06:28,11.1,-2.1,78.01,17.0,33.0,6.76
biltine,td,2020-03-13 22:06:28,14.53,20.92,61.45,23.0,2.0,12.57
alofi,nu,2020-03-13 22:06:28,-19.06,-169.92,84.2,79.0,75.0,8.05
istanbul,tr,2020-03-13 22:06:28,41.04,28.98,46.99,100.0,20.0,6.93
yulara,au,2020-03-13 22:06:28,-25.24,130.99,93.2,18.0,0.0,13.87
huangmei,cn,2020-03-13 22:06:28,30.19,116.03,55.24,68.0,10.0,0.31
tooele,us,2020-03-13 22:06:28,40.53,-112.3,42.8,85.0,1.0,20.8
shimoda,jp,2020-03-13 22:06:29,34.67,138.95,48.2,87.0,75.0,18.34
saint george,bm,2020-03-13 22:06:29,32.38,-64.68,68.0,77.0,40.0,6.93
honiara,sb,2020-03-13 22:06:29,-9.43,159.95,87.8,70.0,75.0,11.41
buraydah,sa,2020-03-13 22:06:29,26.33,43.98,73.4,56.0,75.0,14.99
vila franca do campo,pt,2020-03-13 22:06:29,37.72,-25.43,53.6,87.0,20.0,6.93
leningradskiy,ru,2020-03-13 22:06:29,69.38,178.42,-0.58,94.0,12.0,5.88
jinchang,cn,2020-03-13 22:06:29,38.5,102.17,36.93,18.0,0.0,5.41
xuanhua,cn,2020-03-13 22:01:38,40.61,115.04,39.38,25.0,0.0,22.03
gornopravdinsk,ru,2020-03-13 22:06:29,60.05,69.9,34.72,96.0,100.0,13.87
guilin,cn,2020-03-13 22:06:29,25.28,110.29,62.6,59.0,20.0,8.95
baiyin,cn,2020-03-13 22:06:29,36.56,104.21,37.4,32.0,0.0,2.24
benguela,ao,2020-03-13 22:06:30,-12.58,13.41,77.36,87.0,100.0,6.26
sunrise manor,us,2020-03-13 22:06:30,36.21,-115.07,59.0,62.0,90.0,14.99
srednekolymsk,ru,2020-03-13 22:06:30,67.45,153.68,-13.61,90.0,55.0,12.08
nador,ma,2020-03-13 22:06:30,35.17,-2.93,57.2,76.0,20.0,1.52
turgoyak,ru,2020-03-13 22:06:30,55.15,60.12,33.03,83.0,67.0,7.9
sherpur,bd,2020-03-13 22:06:30,25.02,90.02,84.63,38.0,87.0,8.81
hualmay,pe,2020-03-13 22:06:30,-11.1,-77.61,71.47,80.0,68.0,3.09
prince rupert,ca,2020-03-13 22:06:30,54.32,-130.32,32.0,44.0,1.0,12.75
bandar-e lengeh,ir,2020-03-13 22:06:34,26.56,54.88,68.0,64.0,100.0,6.93
daru,pg,2020-03-13 22:06:34,-9.08,143.21,89.17,61.0,68.0,7.92
rocha,uy,2020-03-13 22:06:34,-34.48,-54.33,67.37,74.0,0.0,10.36
esfarayen,ir,2020-03-13 22:06:34,37.08,57.51,35.6,80.0,100.0,2.24
astana,kz,2020-03-13 22:03:31,51.18,71.45,14.0,72.0,2.0,11.18
longyearbyen,sj,2020-03-13 22:06:34,78.22,15.64,-5.8,63.0,40.0,20.8
lorengau,pg,2020-03-13 22:06:34,-2.02,147.27,84.42,77.0,1.0,15.3
tautira,pf,2020-03-13 22:01:39,-17.73,-149.15,91.4,59.0,20.0,8.05
tignere,cm,2020-03-13 22:06:34,7.37,12.65,63.1,19.0,14.0,2.51
changji,cn,2020-03-13 22:06:34,44.02,87.32,37.4,59.0,0.0,2.24
malpe,in,2020-03-13 22:06:35,13.35,74.72,77.0,78.0,0.0,5.82
chuy,uy,2020-03-13 22:06:35,-33.7,-53.46,70.81,82.0,0.0,11.74
fairbanks,us,2020-03-13 22:06:35,64.84,-147.72,25.0,49.0,75.0,3.36
neuquen,ar,2020-03-13 22:06:35,-38.95,-68.06,66.2,32.0,100.0,8.05
manta,ec,2020-03-13 22:02:43,-0.95,-80.73,78.8,83.0,40.0,2.24
finschhafen,pg,2020-03-13 22:06:35,-6.6,147.87,83.44,78.0,100.0,34.29
georgetown,sh,2020-03-13 22:06:35,-7.93,-14.42,81.09,73.0,100.0,17.43
eufaula,us,2020-03-13 22:06:35,31.89,-85.15,71.6,87.0,1.0,1.81
avarua,ck,2020-03-13 22:06:35,-21.21,-159.78,86.0,70.0,8.0,4.7
shelburne,ca,2020-03-13 22:06:36,44.08,-80.2,37.4,55.0,40.0,5.82
marawi,sd,2020-03-13 22:06:36,18.48,31.82,58.41,27.0,0.0,8.9
mezen,ru,2020-03-13 22:06:36,65.85,44.24,22.93,93.0,78.0,8.61
yazman,pk,2020-03-13 22:06:36,29.12,71.74,64.78,44.0,0.0,1.32
yumen,cn,2020-03-13 22:06:36,40.28,97.2,36.01,32.0,1.0,12.64
vanavara,ru,2020-03-13 22:06:36,60.34,102.28,27.81,95.0,100.0,5.73
yarmouth,ca,2020-03-13 22:06:36,43.83,-66.12,44.6,93.0,90.0,12.75
kahului,us,2020-03-13 22:06:37,20.89,-156.47,77.0,100.0,90.0,5.82
komsomolskiy,ru,2020-03-13 22:06:37,43.98,46.7,45.21,88.0,43.0,4.12
unguia,co,2020-03-13 22:06:37,8.04,-77.09,78.8,83.0,40.0,6.93
chicama,pe,2020-03-13 22:06:37,-7.84,-79.15,73.4,83.0,34.0,10.29
meulaboh,id,2020-03-13 22:06:37,4.14,96.13,81.91,77.0,0.0,3.85
tuljapur,in,2020-03-13 22:06:37,18.0,76.08,78.31,21.0,33.0,16.67
iberia,pe,2020-03-13 22:06:37,-11.35,-69.58,74.46,93.0,100.0,0.74
wau,pg,2020-03-13 22:06:38,-7.34,146.72,72.66,78.0,100.0,5.57
bela,pk,2020-03-13 22:06:38,26.23,66.31,68.79,28.0,0.0,0.87
vila velha,br,2020-03-13 22:06:38,-20.33,-40.29,75.2,94.0,75.0,3.36
acapulco,mx,2020-03-13 22:05:21,16.86,-99.89,82.4,74.0,40.0,4.7
cocobeach,ga,2020-03-13 22:06:38,1.0,9.58,84.2,89.0,20.0,9.17
beringovskiy,ru,2020-03-13 22:06:38,63.05,179.32,21.52,91.0,100.0,14.34
raudeberg,no,2020-03-13 22:06:38,61.99,5.14,32.0,68.0,97.0,12.75
suarez,co,2020-03-13 22:06:38,2.95,-76.7,65.88,95.0,100.0,0.78
anjad,in,2020-03-13 22:06:39,22.03,75.05,68.22,22.0,0.0,7.67
arraial do cabo,br,2020-03-13 22:06:39,-22.97,-42.03,77.32,86.0,0.0,11.61
skibbereen,ie,2020-03-13 22:06:39,51.55,-9.27,42.8,100.0,75.0,8.05
port-gentil,ga,2020-03-13 22:06:39,-0.72,8.78,82.9,78.0,100.0,7.4
imeni poliny osipenko,ru,2020-03-13 22:06:39,52.42,136.49,12.92,77.0,100.0,1.74
vinh,vn,2020-03-13 22:02:12,18.67,105.67,73.17,93.0,100.0,4.54
ales,fr,2020-03-13 22:06:39,44.13,4.08,48.2,65.0,13.0,6.93
sete,fr,2020-03-13 22:06:39,43.4,3.7,46.0,75.0,33.0,5.82
namibe,ao,2020-03-13 22:06:39,-15.2,12.15,75.07,73.0,100.0,5.59
vostok,ru,2020-03-13 22:06:40,46.49,135.88,20.01,84.0,99.0,8.16
kimberley,za,2020-03-13 22:06:40,-28.73,24.76,59.0,93.0,0.0,5.82
tanete,id,2020-03-13 22:06:40,-3.94,119.78,77.99,88.0,100.0,8.16
dalby,au,2020-03-13 22:06:40,-27.18,151.27,78.8,34.0,0.0,6.93
najran,sa,2020-03-13 22:06:40,17.49,44.13,66.2,29.0,97.0,9.57
mountain home,us,2020-03-13 22:06:40,43.13,-115.69,48.2,31.0,1.0,9.17
ondjiva,ao,2020-03-13 22:06:40,-17.07,15.73,69.91,67.0,99.0,0.85
rabat,ma,2020-03-13 22:06:40,33.99,-6.84,59.0,93.0,75.0,3.36
tuatapere,nz,2020-03-13 22:06:40,-46.13,167.68,69.01,56.0,68.0,4.0
bertoua,cm,2020-03-13 22:06:41,4.58,13.68,73.06,51.0,40.0,2.04
acajutla,sv,2020-03-13 22:02:37,13.59,-89.83,75.0,90.0,0.0,9.1
tilichiki,ru,2020-03-13 22:06:41,60.47,166.1,18.57,87.0,61.0,7.27
ca mau,vn,2020-03-13 22:06:41,9.18,105.15,92.53,43.0,0.0,10.25
constitucion,mx,2020-03-13 22:06:41,23.99,-104.67,69.8,18.0,40.0,9.17
richards bay,za,2020-03-13 22:06:41,-28.78,32.04,77.09,84.0,67.0,16.53
rapid valley,us,2020-03-13 22:06:41,44.06,-103.15,30.99,92.0,90.0,13.87
deputatskiy,ru,2020-03-13 22:06:42,69.3,139.9,-14.48,76.0,0.0,1.63
batagay-alyta,ru,2020-03-13 22:06:42,67.8,130.41,-11.88,72.0,0.0,5.21
coahuayana,mx,2020-03-13 22:06:42,18.73,-103.68,73.4,88.0,75.0,1.34
talwara,in,2020-03-13 22:06:42,31.95,75.87,59.2,72.0,100.0,8.16
mildura,au,2020-03-13 22:06:42,-34.2,142.15,69.01,29.0,0.0,13.87
roebourne,au,2020-03-13 22:06:42,-20.78,117.13,90.66,43.0,0.0,5.01
abu zabad,sd,2020-03-13 22:06:42,12.35,29.25,65.43,25.0,69.0,12.91
corinto,ni,2020-03-13 22:06:42,12.48,-87.17,73.81,76.0,0.0,2.04
moissac,fr,2020-03-13 22:06:45,44.1,1.09,45.0,85.0,0.0,3.67
vilyuysk,ru,2020-03-13 22:06:46,63.76,121.62,-8.93,94.0,37.0,6.55
saint-francois,gp,2020-03-13 22:06:46,16.25,-61.27,75.2,78.0,0.0,4.7
la macarena,co,2020-03-13 22:06:46,2.18,-73.78,73.83,96.0,89.0,2.66
chiang rai,th,2020-03-13 22:06:46,19.91,99.83,69.8,77.0,64.0,1.9
leshan,cn,2020-03-13 22:06:46,29.56,103.76,62.01,35.0,100.0,1.99
champasak,la,2020-03-13 22:06:46,14.75,106.0,87.8,52.0,40.0,13.87
dicabisagan,ph,2020-03-13 22:06:46,17.08,122.42,81.9,72.0,41.0,8.23
tura,ru,2020-03-13 22:06:46,64.28,100.25,14.52,93.0,100.0,11.68
cabo san lucas,mx,2020-03-13 22:06:46,22.89,-109.91,73.4,60.0,75.0,8.05
isiro,cd,2020-03-13 22:06:47,2.77,27.62,66.13,99.0,86.0,1.88
chino valley,us,2020-03-13 22:06:47,34.76,-112.45,46.0,86.0,90.0,8.05
acarau,br,2020-03-13 22:06:23,-2.89,-40.12,73.96,98.0,100.0,3.44
wakkanai,jp,2020-03-13 22:06:47,45.41,141.67,30.2,68.0,75.0,23.04
cockburn town,tc,2020-03-13 22:02:48,21.46,-71.14,76.89,80.0,15.0,20.0
grand-santi,gf,2020-03-13 22:06:47,4.25,-54.38,76.75,75.0,0.0,5.59
tulun,ru,2020-03-13 22:06:47,54.56,100.58,33.35,96.0,17.0,3.09
mogwase,za,2020-03-13 22:06:47,-25.18,27.27,65.62,79.0,0.0,2.35
ladario,br,2020-03-13 22:04:45,-19.0,-57.6,80.4,67.0,0.0,3.42
loviisa,fi,2020-03-13 22:06:47,60.46,26.23,21.99,67.0,0.0,5.82
bathsheba,bb,2020-03-13 22:06:47,13.22,-59.52,77.0,78.0,40.0,19.46
teya,ru,2020-03-13 22:06:48,60.38,92.63,28.65,87.0,100.0,7.78
piacabucu,br,2020-03-13 22:06:48,-10.41,-36.43,78.28,76.0,36.0,6.33
lamar,us,2020-03-13 22:06:48,33.67,-95.58,51.01,93.0,90.0,16.11
chulman,ru,2020-03-13 22:06:48,56.85,124.91,-7.15,87.0,92.0,11.61
lompoc,us,2020-03-13 22:06:27,34.64,-120.46,57.2,81.0,90.0,6.93
lakhdenpokhya,ru,2020-03-13 22:06:48,61.52,30.2,21.99,52.0,0.0,10.4
kilindoni,tz,2020-03-13 22:06:48,-7.91,39.67,83.37,76.0,98.0,8.05
seoul,kr,2020-03-13 22:02:23,37.57,126.98,44.6,35.0,1.0,8.05
nome,us,2020-03-13 22:06:49,64.5,-165.41,26.6,86.0,90.0,11.41
port hedland,au,2020-03-13 22:06:49,-20.32,118.57,93.2,46.0,17.0,10.29
souillac,mu,2020-03-13 22:06:49,-20.52,57.52,77.0,100.0,75.0,7.72
manjacaze,mz,2020-03-13 22:06:49,-24.71,33.88,69.13,96.0,0.0,2.46
hambantota,lk,2020-03-13 22:06:49,6.12,81.12,78.8,88.0,0.0,2.24
ayolas,py,2020-03-13 22:06:49,-27.4,-56.9,83.05,47.0,3.0,3.87
port hawkesbury,ca,2020-03-13 22:06:49,45.62,-61.35,35.01,95.0,90.0,23.04
vilhena,br,2020-03-13 22:06:49,-12.74,-60.15,71.89,96.0,100.0,2.46
vryburg,za,2020-03-13 22:06:49,-26.96,24.73,59.63,73.0,0.0,5.17
omboue,ga,2020-03-13 22:06:49,-1.57,9.26,76.53,94.0,100.0,1.79
medak,in,2020-03-13 22:06:50,18.03,78.27,79.0,88.0,75.0,8.5
saint-louis,sn,2020-03-13 22:06:50,16.33,-15.0,72.9,19.0,1.0,6.42
yantal,ru,2020-03-13 22:06:50,56.85,105.25,29.46,95.0,94.0,4.32
clyde river,ca,2020-03-13 22:06:50,70.47,-68.59,-13.0,75.0,90.0,13.87
salym,ru,2020-03-13 22:06:50,60.06,71.48,36.28,90.0,100.0,14.05
nanakuli,us,2020-03-13 22:06:50,21.39,-158.15,77.0,88.0,90.0,9.17
terney,ru,2020-03-13 22:06:50,45.05,136.61,28.71,65.0,23.0,4.97
thinadhoo,mv,2020-03-13 22:06:50,0.53,72.93,83.26,67.0,62.0,9.35
sola,vu,2020-03-13 22:06:50,-13.88,167.55,85.19,75.0,100.0,15.05
uaua,br,2020-03-13 22:06:51,-9.84,-39.48,70.45,78.0,100.0,6.31
belaya gora,ru,2020-03-13 22:06:51,68.53,146.42,-17.46,87.0,7.0,4.72
esmeraldas,ec,2020-03-13 22:06:51,-1.87,-79.8,77.0,94.0,90.0,1.12
betlitsa,ru,2020-03-13 22:06:51,54.01,33.96,32.07,91.0,0.0,4.85
darhan,mn,2020-03-13 22:02:43,49.49,105.92,22.89,80.0,65.0,8.03
thomaston,us,2020-03-13 22:02:37,32.89,-84.33,69.8,82.0,90.0,3.58
inuvik,ca,2020-03-13 22:06:51,68.35,-133.72,26.6,63.0,75.0,3.36
edd,er,2020-03-13 22:06:51,13.93,41.69,78.73,65.0,26.0,4.97
arcachon,fr,2020-03-13 22:06:51,44.59,-1.05,37.4,100.0,20.0,1.9
mushie,cd,2020-03-13 22:06:52,-3.02,16.9,73.44,82.0,91.0,1.32
singkawang,id,2020-03-13 22:06:52,0.9,109.0,82.99,75.0,100.0,3.78
along,in,2020-03-13 22:06:52,28.17,94.77,72.88,52.0,20.0,2.33
cervo,es,2020-03-13 22:06:52,43.67,-7.41,46.0,1.0,73.0,1.99
seydi,tm,2020-03-13 22:06:52,39.48,62.91,52.72,42.0,0.0,3.51
narsaq,gl,2020-03-13 22:06:52,60.92,-46.05,21.2,79.0,95.0,3.36
swift current,ca,2020-03-13 22:06:52,50.28,-107.8,8.6,65.0,90.0,19.46
wieliczka,pl,2020-03-13 22:06:53,49.99,20.06,43.0,56.0,75.0,23.04
guarapari,br,2020-03-13 22:06:53,-20.67,-40.5,75.2,94.0,75.0,3.36
hun,ly,2020-03-13 22:06:53,29.13,15.95,56.16,33.0,100.0,3.33
aripuana,br,2020-03-13 22:05:04,-9.17,-60.63,74.79,97.0,100.0,1.16
iskateley,ru,2020-03-13 22:06:53,67.68,53.15,17.1,94.0,100.0,13.51
unai,br,2020-03-13 22:06:53,-16.36,-46.91,67.35,97.0,79.0,2.13
peleduy,ru,2020-03-13 22:06:53,59.63,112.74,4.82,88.0,48.0,5.82
faanui,pf,2020-03-13 22:06:53,-16.48,-151.75,83.07,77.0,100.0,14.5
lincoln,nz,2020-03-13 22:06:54,-43.65,172.48,66.99,72.0,0.0,14.99
panama city,us,2020-03-13 22:05:03,30.16,-85.66,68.0,94.0,1.0,5.82
tysmenytsya,ua,2020-03-13 22:06:54,48.9,24.84,39.0,79.0,23.0,1.99
sao joao da barra,br,2020-03-13 22:06:54,-21.64,-41.05,77.5,87.0,3.0,6.44
orchard homes,us,2020-03-13 22:06:54,46.86,-114.05,32.0,50.0,90.0,23.04
puerto leguizamo,co,2020-03-13 22:06:54,-0.19,-74.78,74.28,94.0,100.0,1.43
quatre cocos,mu,2020-03-13 22:06:54,-20.21,57.76,77.0,100.0,75.0,13.51
batticaloa,lk,2020-03-13 22:06:54,7.71,81.69,79.43,72.0,6.0,2.68
evensk,ru,2020-03-13 22:06:54,61.95,159.23,1.67,65.0,100.0,18.45
puerto cabezas,ni,2020-03-13 22:06:36,14.04,-83.39,73.04,89.0,0.0,4.32
geraldton,au,2020-03-13 22:06:54,-28.77,114.6,87.8,43.0,75.0,21.92
kangaatsiaq,gl,2020-03-13 22:06:55,68.31,-53.46,5.47,93.0,100.0,19.35
sao felix do xingu,br,2020-03-13 22:06:55,-6.64,-51.99,72.45,96.0,93.0,0.63
khor,ru,2020-03-13 22:06:55,47.89,134.95,19.02,92.0,100.0,8.88
hammerfest,no,2020-03-13 22:06:55,70.66,23.68,15.8,78.0,100.0,32.21
eureka,us,2020-03-13 22:06:54,40.8,-124.16,48.2,93.0,90.0,6.93
camopi,gf,2020-03-13 22:06:55,3.17,-52.32,72.14,96.0,84.0,3.67
keighley,gb,2020-03-13 22:06:55,53.87,-1.91,44.01,100.0,75.0,6.93
lagoa,pt,2020-03-13 22:06:55,39.05,-27.98,60.04,71.0,40.0,6.98
maralal,ke,2020-03-13 22:06:55,1.1,36.7,66.72,57.0,100.0,7.92
olafsvik,is,2020-03-13 22:06:55,64.89,-23.71,27.39,75.0,100.0,28.43
ust-kuyga,ru,2020-03-13 22:06:56,70.02,135.6,-18.09,87.0,0.0,4.83
troianul,ro,2020-03-13 22:06:56,44.0,25.0,52.0,80.0,17.0,1.99
dong xoai,vn,2020-03-13 22:06:56,11.53,106.92,94.96,43.0,89.0,0.87
lavrentiya,ru,2020-03-13 22:06:56,65.58,-171.0,29.97,95.0,100.0,20.45
sinop,tr,2020-03-13 22:02:00,41.77,34.87,49.17,87.0,1.0,22.35
cave spring,us,2020-03-13 22:06:56,37.23,-80.01,53.6,37.0,1.0,12.75
nadvoitsy,ru,2020-03-13 22:06:56,63.87,34.32,16.18,89.0,100.0,18.68
broome,au,2020-03-13 22:06:56,-17.97,122.23,91.4,66.0,75.0,12.75
jiuquan,cn,2020-03-13 22:06:57,39.74,98.52,34.23,26.0,9.0,5.79
saint-augustin,ca,2020-03-13 22:06:57,51.23,-58.65,17.22,85.0,100.0,21.34
chaiyaphum,th,2020-03-13 22:06:57,15.75,102.0,94.51,37.0,0.0,8.03
preobrazheniye,ru,2020-03-13 22:06:57,42.9,133.91,33.19,53.0,26.0,13.22
cintalapa,mx,2020-03-13 22:06:57,16.7,-93.73,70.59,82.0,22.0,2.89
trelew,ar,2020-03-13 22:04:21,-43.25,-65.31,59.77,46.0,80.0,37.31
dakar,sn,2020-03-13 22:04:33,14.69,-17.44,75.2,50.0,0.0,10.29
jutai,br,2020-03-13 22:06:57,-5.18,-68.9,75.58,90.0,94.0,1.16
tessalit,ml,2020-03-13 22:06:57,20.2,1.01,69.08,16.0,0.0,11.83
suoyarvi,ru,2020-03-13 22:06:57,62.08,32.35,18.14,58.0,30.0,12.48
mackay,au,2020-03-13 22:06:57,-21.15,149.2,86.0,48.0,77.0,17.22
fortuna,us,2020-03-13 22:06:58,40.6,-124.16,48.99,93.0,90.0,6.93
bocas del toro,pa,2020-03-13 22:06:58,9.33,-82.25,68.0,73.0,1.0,3.0
turukhansk,ru,2020-03-13 22:06:58,65.82,87.98,33.28,99.0,100.0,12.3
lazaro cardenas,mx,2020-03-13 22:06:58,17.96,-102.2,76.42,82.0,34.0,2.01
porbandar,in,2020-03-13 22:06:58,21.64,69.61,60.8,77.0,0.0,11.7
klyuchi,ru,2020-03-13 22:06:58,52.27,79.17,18.39,91.0,0.0,9.8
chissamba,ao,2020-03-13 22:06:58,-12.17,17.33,64.04,96.0,100.0,1.92
antofagasta,cl,2020-03-13 22:03:03,-23.65,-70.4,72.0,82.0,40.0,9.17
koster,za,2020-03-13 22:06:59,-25.86,26.9,55.45,86.0,22.0,6.17
svetlogorsk,ru,2020-03-13 22:06:59,54.94,20.15,33.8,69.0,75.0,22.37
kalevala,ru,2020-03-13 22:06:59,65.2,31.17,13.8,87.0,100.0,18.57
sendafa,et,2020-03-13 22:06:59,9.15,39.03,58.87,77.0,99.0,0.18
kaeo,nz,2020-03-13 22:06:59,-35.1,173.78,70.0,69.0,0.0,10.0
palo alto,mx,2020-03-13 22:06:59,21.92,-101.97,73.4,25.0,75.0,12.75
udimskiy,ru,2020-03-13 22:06:59,61.14,45.91,31.01,91.0,99.0,12.93
jiaojiang,cn,2020-03-13 22:05:05,28.68,121.44,55.0,83.0,39.0,3.0
kinsale,ie,2020-03-13 22:06:59,51.71,-8.53,43.0,100.0,75.0,8.05
piedecuesta,co,2020-03-13 22:06:59,6.99,-73.05,68.0,100.0,40.0,3.36
vanimo,pg,2020-03-13 22:06:59,-2.67,141.3,82.2,77.0,100.0,10.38
ulagan,ru,2020-03-13 22:07:00,50.63,87.96,21.87,65.0,53.0,5.28
grootfontein,na,2020-03-13 22:07:00,-19.57,18.12,64.4,76.0,53.0,3.13
ballina,au,2020-03-13 22:07:00,-28.87,153.57,78.8,47.0,80.0,19.46
sao filipe,cv,2020-03-13 22:07:00,14.9,-24.5,75.06,57.0,100.0,12.8
korla,cn,2020-03-13 22:07:00,41.76,86.15,35.01,94.0,29.0,2.77
yelizovo,ru,2020-03-13 22:07:00,53.19,158.38,33.8,64.0,40.0,13.42
knysna,za,2020-03-13 22:07:00,-34.04,23.05,66.2,88.0,90.0,8.05
zheleznodorozhnyy,ru,2020-03-13 22:07:00,55.75,38.0,39.0,74.0,7.0,6.71
stornoway,gb,2020-03-13 22:07:00,58.21,-6.39,43.0,75.0,100.0,20.8
pindiga,ng,2020-03-13 22:07:00,9.98,10.93,66.38,22.0,10.0,11.68
mayor pablo lagerenza,py,2020-03-13 22:07:01,-19.93,-60.77,85.21,51.0,3.0,8.61
amapa,br,2020-03-13 22:07:01,1.0,-52.0,74.37,93.0,85.0,5.23
madang,pg,2020-03-13 22:07:01,-5.22,145.8,84.15,74.0,100.0,20.18
cairns,au,2020-03-13 22:02:29,-16.92,145.77,87.8,45.0,40.0,10.29
mazagao,br,2020-03-13 22:07:01,-0.12,-51.29,78.8,100.0,40.0,9.17
montale,it,2020-03-13 22:07:01,43.94,11.02,52.0,100.0,40.0,1.12
smoky lake,ca,2020-03-13 22:07:01,54.12,-112.47,-7.01,76.0,100.0,5.86
aguas belas,br,2020-03-13 22:07:02,-9.11,-37.12,72.43,81.0,100.0,1.95
kungurtug,ru,2020-03-13 22:07:02,50.6,97.52,25.56,73.0,0.0,1.86
oranjemund,na,2020-03-13 22:07:02,-28.55,16.43,61.07,94.0,0.0,1.32
kondoa,tz,2020-03-13 22:07:02,-4.9,35.78,63.45,98.0,96.0,3.06
saint-pierre,pm,2020-03-13 22:07:02,46.77,-56.17,28.24,78.0,100.0,26.02
bundaberg,au,2020-03-13 22:07:02,-24.85,152.35,82.4,51.0,40.0,18.34
zile,tr,2020-03-13 22:07:02,40.3,35.89,50.0,81.0,75.0,3.11
maniitsoq,gl,2020-03-13 22:07:02,65.42,-52.9,9.01,90.0,100.0,8.34
zaysan,kz,2020-03-13 22:07:02,47.47,84.87,30.27,67.0,0.0,3.51
dongsheng,cn,2020-03-13 22:07:03,39.82,109.98,35.19,25.0,0.0,23.49
varhaug,no,2020-03-13 22:07:03,58.61,5.65,35.01,74.0,0.0,4.7
kavaratti,in,2020-03-13 22:06:16,10.57,72.64,84.2,70.0,20.0,4.7
kodar,in,2020-03-13 22:07:03,16.98,79.97,78.42,71.0,5.0,11.81
camacha,pt,2020-03-13 22:07:04,33.08,-16.33,60.8,55.0,75.0,13.87
egvekinot,ru,2020-03-13 22:07:04,66.32,-179.17,10.04,76.0,100.0,7.2
dargaville,nz,2020-03-13 22:07:04,-35.93,173.88,71.58,54.0,90.0,6.04
luanda,ao,2020-03-13 22:03:00,-8.84,13.23,80.6,88.0,20.0,8.05
kamuli,ug,2020-03-13 22:07:05,0.95,33.12,65.35,97.0,100.0,2.24
maragogi,br,2020-03-13 22:07:05,-9.01,-35.22,81.91,72.0,100.0,9.82
matara,lk,2020-03-13 22:07:05,5.95,80.54,81.54,65.0,0.0,5.95
zabol,ir,2020-03-13 22:07:05,31.03,61.5,42.8,60.0,0.0,4.7
vagay,ru,2020-03-13 22:07:05,57.94,69.02,35.06,94.0,100.0,12.57
shizunai,jp,2020-03-13 22:07:05,42.33,142.37,30.33,69.0,74.0,4.27
novobirilyussy,ru,2020-03-13 22:07:05,56.95,90.67,27.32,86.0,100.0,6.06
saint-joseph,re,2020-03-13 22:07:05,-21.37,55.62,78.8,94.0,75.0,23.04
ceyhan,tr,2020-03-13 22:07:05,37.02,35.82,62.01,87.0,75.0,8.05
angoche,mz,2020-03-13 22:07:06,-16.23,39.91,72.07,98.0,100.0,5.75
kerman,ir,2020-03-13 22:07:06,30.28,57.08,41.0,23.0,73.0,6.93
evanston,us,2020-03-13 22:05:41,42.04,-87.69,43.0,35.0,90.0,11.41
mollendo,pe,2020-03-13 22:07:06,-17.02,-72.01,68.95,88.0,100.0,5.12
sobolevo,ru,2020-03-13 22:07:06,54.43,31.9,32.0,88.0,0.0,7.56
byron bay,au,2020-03-13 22:07:06,-28.65,153.62,80.01,50.0,90.0,16.11
atbasar,kz,2020-03-13 22:07:06,51.8,68.33,33.8,98.0,100.0,16.51
camabatela,ao,2020-03-13 22:07:07,-8.19,15.38,65.25,98.0,90.0,2.3
petrivka,ua,2020-03-13 22:07:07,46.97,30.96,42.8,93.0,27.0,11.18
berga,es,2020-03-13 22:07:07,42.1,1.85,54.0,93.0,90.0,1.61
luwingu,zm,2020-03-13 22:07:07,-10.26,29.93,64.83,98.0,100.0,1.92
ambon,id,2020-03-13 22:07:07,-3.7,128.18,77.0,94.0,40.0,4.7
mancio lima,br,2020-03-13 22:07:07,-7.61,-72.9,79.16,75.0,84.0,1.12
kovdor,ru,2020-03-13 22:07:07,67.57,30.48,3.24,89.0,100.0,6.33
saladoblanco,co,2020-03-13 22:07:08,1.99,-76.04,60.67,94.0,62.0,3.15
ryotsu,jp,2020-03-13 22:07:08,38.08,138.43,42.8,60.0,90.0,5.82
kuala lipis,my,2020-03-13 22:07:08,4.18,102.05,84.24,67.0,98.0,3.06
andenes,no,2020-03-13 22:03:04,69.31,16.12,26.6,63.0,100.0,14.99
necochea,ar,2020-03-13 22:03:09,-38.55,-58.74,73.99,79.0,98.0,1.99
owando,cg,2020-03-13 22:07:08,-0.48,15.9,70.81,84.0,58.0,2.24
touba,ci,2020-03-13 22:07:08,8.28,-7.68,77.16,55.0,0.0,9.15
zatoka,ua,2020-03-13 22:07:08,46.07,30.47,42.8,93.0,67.0,11.18
whitehorse,ca,2020-03-13 22:07:08,60.72,-135.05,19.4,34.0,75.0,6.93
mananara,mg,2020-03-13 22:07:09,-16.17,49.77,81.61,84.0,100.0,34.31
domoni,km,2020-03-13 22:07:09,-12.26,44.53,84.61,74.0,100.0,8.39
yerbogachen,ru,2020-03-13 22:07:09,61.28,108.01,5.36,86.0,53.0,8.5
sakakah,sa,2020-03-13 22:07:09,29.97,40.21,59.0,58.0,75.0,16.11
azuaga,es,2020-03-13 22:07:09,38.27,-5.68,51.01,90.0,23.0,1.99
sikonge,tz,2020-03-13 22:07:09,-5.63,32.77,63.03,97.0,97.0,2.26
roma,au,2020-03-13 22:07:09,-26.58,148.78,80.26,34.0,0.0,14.99
qui nhon,vn,2020-03-13 22:07:09,13.77,109.23,83.82,60.0,0.0,4.63
opole lubelskie,pl,2020-03-13 22:07:09,51.15,21.97,42.01,86.0,75.0,20.8
mori,jp,2020-03-13 22:07:09,34.83,137.93,48.0,100.0,75.0,4.7
aasiaat,gl,2020-03-13 22:07:09,68.71,-52.87,1.15,95.0,100.0,7.83
rafai,cf,2020-03-13 22:07:10,4.95,23.92,71.65,86.0,95.0,1.88
lithgow,au,2020-03-13 22:07:10,-33.48,150.15,60.8,72.0,90.0,11.41
ambulu,id,2020-03-13 22:07:10,-8.35,113.61,81.52,74.0,75.0,1.92
mayumba,ga,2020-03-13 22:07:10,-3.43,10.66,82.4,78.0,100.0,0.6
manyana,bw,2020-03-13 22:07:10,-23.4,21.72,68.0,66.0,0.0,9.93
son la,vn,2020-03-13 22:05:32,21.32,103.9,86.86,46.0,44.0,3.09
la asuncion,ve,2020-03-13 22:04:05,11.03,-63.86,78.8,83.0,2.0,16.11
kampene,cd,2020-03-13 22:07:10,-3.6,26.67,66.97,99.0,100.0,2.13
colares,pt,2020-03-13 22:07:10,38.8,-9.45,55.99,87.0,60.0,6.93
we,nc,2020-03-13 22:07:10,-20.92,167.26,83.5,79.0,99.0,15.39
mogocha,ru,2020-03-13 22:07:11,53.73,119.77,11.89,65.0,93.0,8.95
rehoboth,na,2020-03-13 22:07:11,-23.32,17.08,64.42,30.0,0.0,4.99
darnah,ly,2020-03-13 22:07:11,32.77,22.64,61.72,83.0,0.0,25.95
roald,no,2020-03-13 22:07:11,62.58,6.13,32.0,60.0,20.0,12.75
karpogory,ru,2020-03-13 22:07:11,64.0,44.45,24.82,97.0,100.0,3.33
selma,us,2020-03-13 22:04:14,36.57,-119.61,69.8,71.0,20.0,11.41
tual,id,2020-03-13 22:07:11,-5.67,132.75,83.55,75.0,46.0,13.0
svetlaya,ru,2020-03-13 22:07:11,46.54,138.33,24.49,50.0,100.0,9.98
peniche,pt,2020-03-13 22:07:12,39.36,-9.38,55.99,100.0,75.0,3.36
kijang,id,2020-03-13 22:07:12,0.9,104.63,86.0,70.0,20.0,6.93
neepawa,ca,2020-03-13 22:07:12,50.23,-99.47,6.8,65.0,20.0,5.82
tucurui,br,2020-03-13 22:07:12,-3.77,-49.67,74.88,93.0,98.0,2.86
tocache,pe,2020-03-13 22:07:12,-8.18,-76.51,65.91,94.0,73.0,1.05
oyo,ng,2020-03-13 22:07:12,7.85,3.93,76.89,88.0,59.0,2.39
wanning,cn,2020-03-13 22:07:12,18.8,110.4,78.42,80.0,79.0,4.56
phalodi,in,2020-03-13 22:07:12,27.13,72.37,64.44,37.0,0.0,5.23
urumqi,cn,2020-03-13 22:05:44,43.8,87.6,37.4,59.0,0.0,2.24
itoman,jp,2020-03-13 22:07:12,26.12,127.67,66.2,77.0,75.0,26.4
cap malheureux,mu,2020-03-13 22:07:12,-19.98,57.61,77.0,100.0,75.0,11.43
brasileia,br,2020-03-13 22:07:13,-11.02,-68.75,74.84,92.0,100.0,1.5
las cruces,us,2020-03-13 22:04:37,32.31,-106.78,62.01,54.0,40.0,10.29
bonavista,ca,2020-03-13 22:07:13,48.65,-53.11,27.0,82.0,100.0,8.01
trabzon,tr,2020-03-13 22:07:13,40.92,39.83,50.0,100.0,90.0,4.7
dekar,bw,2020-03-13 22:07:13,-21.53,21.93,66.97,82.0,0.0,5.64
ashtabula,us,2020-03-13 22:03:45,41.7,-80.77,41.0,64.0,5.0,12.75
ostashkov,ru,2020-03-13 22:07:13,57.15,33.11,31.89,97.0,61.0,3.65
kichera,ru,2020-03-13 22:07:13,55.94,110.1,18.52,85.0,97.0,1.7
plettenberg bay,za,2020-03-13 22:07:14,-34.05,23.37,64.87,92.0,4.0,4.18
tecoanapa,mx,2020-03-13 22:07:14,16.52,-98.75,74.21,85.0,0.0,1.32
waingapu,id,2020-03-13 22:07:14,-9.66,120.26,82.72,75.0,1.0,4.23
porto novo,cv,2020-03-13 22:07:14,17.02,-25.06,71.6,68.0,75.0,13.87
derbent,ru,2020-03-13 22:06:41,42.07,48.29,49.73,78.0,100.0,12.24
ikom,ng,2020-03-13 22:07:14,5.97,8.71,75.02,61.0,100.0,0.49
bheramara,bd,2020-03-13 22:07:14,24.02,88.99,83.17,39.0,100.0,9.22
erdenet,mn,2020-03-13 22:07:14,49.03,104.08,24.66,75.0,41.0,4.76
san felipe,mx,2020-03-13 22:03:46,21.48,-101.22,77.0,23.0,75.0,16.11
sri aman,my,2020-03-13 22:07:14,1.24,111.46,82.4,78.0,75.0,3.36
vrangel,ru,2020-03-13 22:07:15,42.73,133.08,35.1,74.0,94.0,16.17
tobol,kz,2020-03-13 22:07:15,52.68,62.58,35.2,93.0,100.0,20.49
muisne,ec,2020-03-13 22:07:15,0.6,-80.03,76.62,91.0,100.0,4.29
vizinga,ru,2020-03-13 22:07:15,61.07,50.1,30.13,94.0,96.0,8.59
joensuu,fi,2020-03-13 22:03:55,62.6,29.76,19.0,61.0,0.0,12.75
yar-sale,ru,2020-03-13 22:07:15,66.83,70.83,31.78,98.0,100.0,14.52
great yarmouth,gb,2020-03-13 22:07:15,52.61,1.73,44.01,93.0,63.0,5.82
khorixas,na,2020-03-13 22:07:15,-20.37,14.97,70.63,44.0,0.0,0.85
miri,my,2020-03-13 22:07:15,4.41,114.01,86.0,79.0,75.0,5.82
menongue,ao,2020-03-13 22:07:16,-14.66,17.69,62.76,95.0,100.0,3.02
boende,cd,2020-03-13 22:07:16,-0.22,20.87,70.09,90.0,99.0,3.04
baie-comeau,ca,2020-03-13 22:07:16,49.22,-68.15,32.0,100.0,100.0,18.34
snasa,no,2020-03-13 22:07:16,64.25,12.38,9.0,90.0,85.0,7.11
ilam,np,2020-03-13 22:07:16,26.92,87.92,59.65,63.0,100.0,3.24
bilibino,ru,2020-03-13 22:07:16,68.05,166.44,-13.07,90.0,100.0,14.65
adrar,dz,2020-03-13 22:07:16,25.75,-1.0,61.43,17.0,0.0,2.15
yarada,in,2020-03-13 22:07:16,17.65,83.27,80.6,78.0,20.0,2.24
half moon bay,us,2020-03-13 22:07:16,37.46,-122.43,57.0,71.0,75.0,11.41
bambanglipuro,id,2020-03-13 22:07:16,-7.95,110.28,86.18,63.0,93.0,3.49
xingyi,cn,2020-03-13 22:07:17,24.19,102.82,67.28,61.0,97.0,4.45
derzhavinsk,kz,2020-03-13 22:07:17,51.1,66.32,33.89,97.0,97.0,17.18
cangucu,br,2020-03-13 22:07:17,-31.39,-52.68,73.99,87.0,15.0,3.0
paysandu,uy,2020-03-13 22:07:17,-32.32,-58.08,84.25,38.0,0.0,7.96
ust-nera,ru,2020-03-13 22:07:17,64.57,143.2,-11.7,82.0,100.0,4.43
port keats,au,2020-03-13 22:07:17,-14.25,129.55,93.09,49.0,26.0,3.8
zanesville,us,2020-03-13 22:07:17,39.94,-82.01,44.6,60.0,1.0,7.83
cefalu,it,2020-03-13 22:07:17,38.04,14.02,60.01,55.0,95.0,4.0
iquique,cl,2020-03-13 22:07:17,-20.22,-70.14,73.4,64.0,58.0,11.41
lakes entrance,au,2020-03-13 22:07:18,-37.88,147.98,62.01,53.0,100.0,4.0
potam,mx,2020-03-13 22:07:18,27.6,-110.38,69.8,55.0,75.0,3.36
