City,Country,Date,Latitude,Longitude,Max Temperature (F),Humidity (%),Cloudiness (%),Wind Speed (mph)
arraial do cabo,br,2020-03-14 21:52:15,-22.97,-42.03,78.28,88.0,16.0,12.3
koumac,nc,2020-03-14 21:56:27,-20.57,164.28,78.42,87.0,100.0,30.24
yellowknife,ca,2020-03-14 21:54:15,62.46,-114.35,10.4,66.0,90.0,8.05
mehamn,no,2020-03-14 21:49:31,71.04,27.85,15.51,91.0,100.0,13.96
vao,nc,2020-03-14 21:56:18,-22.67,167.48,83.75,82.0,99.0,29.95
bluff,nz,2020-03-14 21:56:27,-46.6,168.33,66.0,70.0,100.0,1.01
ossora,ru,2020-03-14 21:56:27,59.24,163.07,21.87,77.0,0.0,5.86
provideniya,ru,2020-03-14 21:56:27,64.38,-173.3,20.64,86.0,87.0,10.65
port hardy,ca,2020-03-14 21:46:45,50.7,-127.42,39.2,29.0,5.0,19.46
hithadhoo,mv,2020-03-14 21:54:27,-0.6,73.08,83.25,63.0,74.0,5.37
kapaa,us,2020-03-14 21:56:27,22.08,-159.32,78.8,61.0,40.0,13.87
leninskoye,ru,2020-03-14 21:56:27,47.94,132.62,21.13,74.0,22.0,2.77
bengkulu,id,2020-03-14 21:54:47,-3.8,102.27,88.72,57.0,100.0,0.67
khatanga,ru,2020-03-14 21:56:28,71.97,102.5,27.61,96.0,100.0,13.22
rikitea,pf,2020-03-14 21:52:35,-23.12,-134.97,79.07,70.0,3.0,9.08
miguel hidalgo,mx,2020-03-14 21:56:28,19.42,-99.2,69.8,35.0,75.0,8.05
patacamaya,bo,2020-03-14 21:56:28,-17.23,-67.92,45.5,93.0,100.0,5.48
muros,es,2020-03-14 21:55:50,42.78,-9.06,48.0,100.0,90.0,2.82
cape town,za,2020-03-14 21:56:28,-33.93,18.42,66.0,72.0,40.0,17.22
gamba,ga,2020-03-14 21:54:11,-2.65,10.0,78.53,89.0,100.0,0.92
hacienda heights,us,2020-03-14 21:56:28,33.99,-117.97,60.8,71.0,90.0,3.36
ushuaia,ar,2020-03-14 21:55:41,-54.8,-68.3,53.6,62.0,40.0,8.05
partyzany,ua,2020-03-14 21:56:28,46.33,34.75,37.69,49.0,100.0,9.6
magadan,ru,2020-03-14 21:49:31,59.57,150.8,12.79,89.0,100.0,7.54
werda,bw,2020-03-14 21:56:29,-25.27,23.28,71.15,40.0,0.0,6.35
touros,br,2020-03-14 21:56:29,-5.2,-35.46,77.0,94.0,98.0,4.7
nikolskoye,ru,2020-03-14 21:54:15,59.7,30.79,21.2,57.0,55.0,11.18
new norfolk,au,2020-03-14 21:56:29,-42.78,147.06,64.0,55.0,40.0,14.99
geraldton,au,2020-03-14 21:56:29,-28.77,114.6,79.0,74.0,100.0,13.87
barrow,us,2020-03-14 21:54:37,71.29,-156.79,1.4,70.0,20.0,23.04
jinzhou,cn,2020-03-14 21:56:29,41.11,121.14,35.92,24.0,0.0,21.52
talnakh,ru,2020-03-14 21:56:29,69.49,88.4,14.45,95.0,100.0,10.31
kaitangata,nz,2020-03-14 21:54:57,-46.28,169.85,62.01,76.0,100.0,3.0
tombouctou,ml,2020-03-14 21:56:30,20.0,-3.0,77.58,6.0,100.0,8.9
atuona,pf,2020-03-14 21:56:30,-9.8,-139.03,82.47,67.0,28.0,8.03
brae,gb,2020-03-14 21:56:30,60.4,-1.35,44.6,87.0,44.0,18.34
punta arenas,cl,2020-03-14 21:56:30,-53.15,-70.92,55.4,76.0,99.0,20.8
kismayo,so,2020-03-14 21:50:01,-0.36,42.55,82.35,81.0,82.0,12.8
pisco,pe,2020-03-14 21:55:56,-13.7,-76.22,73.99,83.0,75.0,17.22
sinnamary,gf,2020-03-14 21:56:30,5.38,-52.95,79.61,77.0,96.0,15.52
keita,ne,2020-03-14 21:56:30,14.76,5.77,75.2,12.0,81.0,6.93
hermanus,za,2020-03-14 21:56:31,-34.42,19.23,64.0,79.0,100.0,8.01
bredasdorp,za,2020-03-14 21:56:31,-34.53,20.04,64.4,88.0,100.0,4.7
aktas,kz,2020-03-14 21:56:31,49.78,72.96,30.2,80.0,100.0,22.37
dossor,kz,2020-03-14 21:56:31,47.53,52.98,47.89,75.0,100.0,12.46
saint-philippe,re,2020-03-14 21:56:31,-21.36,55.77,73.4,69.0,48.0,6.93
picota,pe,2020-03-14 21:56:31,-6.92,-76.33,62.6,100.0,40.0,1.48
necochea,ar,2020-03-14 21:52:55,-38.55,-58.74,62.01,78.0,0.0,4.0
butaritari,ki,2020-03-14 21:54:03,3.07,172.79,83.88,74.0,0.0,11.79
iqaluit,ca,2020-03-14 21:56:32,63.75,-68.51,-25.01,67.0,5.0,13.87
cherskiy,ru,2020-03-14 21:52:16,68.75,161.3,7.27,93.0,100.0,5.21
khislavichi,ru,2020-03-14 21:56:35,54.19,32.16,25.16,58.0,93.0,16.49
guerrero negro,mx,2020-03-14 21:54:36,27.98,-114.06,61.27,71.0,60.0,13.15
tiksi,ru,2020-03-14 21:52:12,71.69,128.87,-10.35,73.0,54.0,6.08
varhaug,no,2020-03-14 21:56:35,58.61,5.65,44.6,93.0,90.0,26.4
constitucion,mx,2020-03-14 21:56:35,23.99,-104.67,73.4,6.0,5.0,10.29
melfi,td,2020-03-14 21:56:35,11.06,17.94,68.07,15.0,53.0,3.78
hamilton,bm,2020-03-14 21:56:36,32.29,-64.78,68.0,82.0,90.0,2.24
pochutla,mx,2020-03-14 21:56:36,15.74,-96.47,82.4,83.0,75.0,5.82
ichinoseki,jp,2020-03-14 21:56:36,38.92,141.13,39.2,51.0,75.0,2.24
cuiluan,cn,2020-03-14 21:56:36,47.72,128.65,23.97,72.0,77.0,7.02
hobart,au,2020-03-14 21:52:59,-42.88,147.33,64.0,55.0,40.0,14.99
bataipora,br,2020-03-14 21:56:36,-22.3,-53.27,71.31,72.0,0.0,2.42
broome,au,2020-03-14 21:52:19,-17.97,122.23,91.4,70.0,63.0,10.29
ponta do sol,cv,2020-03-14 21:56:37,17.2,-25.09,69.8,77.0,20.0,23.04
busselton,au,2020-03-14 21:54:08,-33.65,115.33,72.0,77.0,28.0,8.99
gorontalo,id,2020-03-14 21:56:37,0.54,123.06,88.56,54.0,87.0,5.55
faanui,pf,2020-03-14 21:56:37,-16.48,-151.75,83.46,73.0,0.0,11.74
freilassing,de,2020-03-14 21:56:37,47.85,12.98,35.01,86.0,0.0,4.7
sola,vu,2020-03-14 21:54:59,-13.88,167.55,85.42,77.0,27.0,26.37
albany,au,2020-03-14 21:56:37,-35.02,117.89,71.6,83.0,90.0,11.41
kupang,id,2020-03-14 21:56:37,-10.17,123.58,86.0,84.0,40.0,5.82
lorengau,pg,2020-03-14 21:56:37,-2.02,147.27,84.74,74.0,99.0,11.48
hilo,us,2020-03-14 21:56:37,19.73,-155.09,78.8,74.0,90.0,5.82
tuatapere,nz,2020-03-14 21:56:38,-46.13,167.68,66.0,70.0,100.0,1.01
schenectady,us,2020-03-14 21:56:38,42.83,-74.08,39.2,55.0,90.0,9.17
chapais,ca,2020-03-14 21:49:47,49.78,-74.85,12.2,78.0,90.0,10.29
jamestown,sh,2020-03-14 21:56:38,-15.94,-5.72,76.82,70.0,100.0,17.98
karratha,au,2020-03-14 21:56:38,-20.74,116.85,85.66,69.0,12.0,13.22
lima,pe,2020-03-14 21:54:55,-12.04,-77.03,77.0,73.0,94.0,16.11
dongsheng,cn,2020-03-14 21:56:38,39.82,109.98,43.16,23.0,0.0,10.18
college,us,2020-03-14 21:56:38,64.86,-147.8,30.0,62.0,90.0,5.82
tigil,ru,2020-03-14 21:56:38,57.8,158.67,20.68,75.0,99.0,21.18
port blair,in,2020-03-14 21:56:39,11.67,92.75,83.03,68.0,32.0,6.24
vaini,to,2020-03-14 21:54:09,-21.2,-175.2,84.2,83.0,75.0,14.99
makakilo city,us,2020-03-14 21:49:50,21.35,-158.09,80.6,88.0,75.0,9.17
amga,ru,2020-03-14 21:56:39,60.9,131.96,-0.58,89.0,100.0,4.63
pacific grove,us,2020-03-14 21:50:42,36.62,-121.92,53.6,93.0,90.0,16.11
satipo,pe,2020-03-14 21:56:39,-11.25,-74.64,62.92,93.0,100.0,3.98
qaanaaq,gl,2020-03-14 21:56:39,77.48,-69.36,-20.22,58.0,34.0,6.4
bambous virieux,mu,2020-03-14 21:56:39,-20.34,57.76,75.99,94.0,40.0,13.02
khorixas,na,2020-03-14 21:55:14,-20.37,14.97,72.7,40.0,35.0,3.96
puerto ayora,ec,2020-03-14 21:54:12,-0.74,-90.35,81.0,72.0,4.0,8.99
chinique,gt,2020-03-14 21:56:40,15.04,-91.03,55.0,79.0,6.0,2.35
cabo san lucas,mx,2020-03-14 21:53:48,22.89,-109.91,71.01,64.0,40.0,7.7
zhezkazgan,kz,2020-03-14 21:56:40,47.8,67.71,24.8,100.0,20.0,4.47
oksfjord,no,2020-03-14 21:56:40,70.24,22.35,28.4,92.0,98.0,19.46
castro,cl,2020-03-14 21:56:40,-42.47,-73.77,46.4,93.0,0.0,4.7
ixtapa,mx,2020-03-14 21:54:51,20.7,-105.2,75.2,83.0,5.0,5.82
jumla,np,2020-03-14 21:50:30,29.27,82.18,35.73,74.0,100.0,1.83
caravelas,br,2020-03-14 21:56:41,-17.71,-39.25,80.42,79.0,100.0,12.39
taoudenni,ml,2020-03-14 21:50:00,22.68,-3.98,69.71,12.0,0.0,6.4
buala,sb,2020-03-14 21:56:41,-8.14,159.59,83.19,78.0,78.0,10.31
svetlogorsk,ru,2020-03-14 21:56:41,54.94,20.15,26.6,68.0,0.0,6.71
grand gaube,mu,2020-03-14 21:49:31,-20.01,57.66,75.2,94.0,40.0,10.65
suar,in,2020-03-14 21:56:41,29.03,79.05,62.56,73.0,66.0,1.07
komsomolskiy,ru,2020-03-14 21:56:41,43.98,46.7,49.39,67.0,86.0,9.93
dikson,ru,2020-03-14 21:56:41,73.51,80.55,-17.95,99.0,67.0,6.22
adrar,dz,2020-03-14 21:56:41,25.75,-1.0,68.7,12.0,0.0,6.96
praya,id,2020-03-14 21:56:42,-8.71,116.27,87.8,70.0,75.0,1.12
vestmannaeyjar,is,2020-03-14 21:50:19,63.44,-20.27,26.46,66.0,0.0,17.45
araouane,ml,2020-03-14 21:56:42,18.9,-3.53,80.71,5.0,68.0,8.99
flores,br,2020-03-14 21:56:42,-7.87,-37.97,72.19,84.0,100.0,6.91
miandrivazo,mg,2020-03-14 21:56:42,-19.52,45.47,76.75,87.0,14.0,0.74
sorong,id,2020-03-14 21:56:42,-0.88,131.25,83.3,80.0,43.0,4.99
huarmey,pe,2020-03-14 21:49:58,-10.07,-78.15,72.63,74.0,100.0,1.63
aasiaat,gl,2020-03-14 21:56:42,68.71,-52.87,-10.57,98.0,100.0,5.93
coquimbo,cl,2020-03-14 21:56:42,-29.95,-71.34,60.8,93.0,0.0,2.24
pitimbu,br,2020-03-14 21:49:17,-7.47,-34.81,78.8,88.0,75.0,3.02
grand island,us,2020-03-14 21:49:47,40.92,-98.34,30.2,86.0,90.0,9.17
san juan,ar,2020-03-14 21:56:43,-31.54,-68.54,66.25,22.0,4.0,12.57
nanortalik,gl,2020-03-14 21:53:14,60.14,-45.24,21.56,89.0,100.0,8.32
prado,br,2020-03-14 21:50:30,-17.34,-39.22,80.42,79.0,100.0,12.39
lompoc,us,2020-03-14 21:56:42,34.64,-120.46,55.4,87.0,90.0,4.7
bethel,us,2020-03-14 21:54:21,41.37,-73.41,48.2,52.0,90.0,6.93
yueyang,cn,2020-03-14 21:54:12,29.33,113.09,65.01,36.0,0.0,5.86
san quintin,mx,2020-03-14 21:54:16,30.48,-115.95,59.83,76.0,69.0,9.78
lobito,ao,2020-03-14 21:56:43,-12.35,13.55,78.58,84.0,100.0,3.62
alyangula,au,2020-03-14 21:56:44,-13.85,136.42,93.2,44.0,39.0,3.36
havoysund,no,2020-03-14 21:56:44,71.0,24.66,23.0,92.0,100.0,19.46
doha,qa,2020-03-14 21:56:44,25.29,51.53,73.99,73.0,80.0,10.29
bachaquero,ve,2020-03-14 21:56:44,9.97,-71.15,76.08,76.0,0.0,0.83
beckley,us,2020-03-14 21:56:44,37.78,-81.19,46.4,87.0,90.0,6.93
pontianak,id,2020-03-14 21:49:57,-0.03,109.33,89.06,60.0,96.0,2.86
cayenne,gf,2020-03-14 21:55:01,4.93,-52.33,78.8,78.0,65.0,5.82
strelka,ru,2020-03-14 21:56:44,58.07,93.03,32.88,96.0,100.0,14.47
port alfred,za,2020-03-14 21:56:44,-33.59,26.89,68.0,87.0,62.0,5.99
massena,us,2020-03-14 21:56:44,44.93,-74.89,37.4,47.0,75.0,5.82
ketchikan,us,2020-03-14 21:53:22,55.34,-131.65,42.8,47.0,1.0,13.87
lagdo,cm,2020-03-14 21:56:45,9.05,13.73,67.77,15.0,13.0,2.8
urumqi,cn,2020-03-14 21:54:26,43.8,87.6,42.8,52.0,100.0,4.47
acapulco,mx,2020-03-14 21:56:45,16.86,-99.89,80.6,78.0,20.0,3.06
port lincoln,au,2020-03-14 21:55:01,-34.73,135.87,65.3,59.0,6.0,14.88
panjab,af,2020-03-14 21:56:45,34.39,67.02,10.87,47.0,40.0,1.99
hervey bay,au,2020-03-14 21:56:45,-25.3,152.85,84.2,45.0,40.0,16.11
masterton,nz,2020-03-14 21:56:45,-40.96,175.66,82.0,62.0,0.0,8.68
saint george,bm,2020-03-14 21:56:45,32.38,-64.68,68.0,82.0,90.0,2.24
pueblo nuevo,mx,2020-03-14 21:56:45,23.38,-105.38,58.57,60.0,67.0,4.88
chimoio,mz,2020-03-14 21:56:46,-19.12,33.48,71.6,88.0,24.0,3.02
benguela,ao,2020-03-14 21:56:46,-12.58,13.41,78.58,84.0,100.0,3.62
ribeira grande,pt,2020-03-14 21:54:32,38.52,-28.7,55.63,84.0,26.0,4.79
copiapo,cl,2020-03-14 21:55:57,-27.37,-70.33,62.6,82.0,0.0,3.36
lebu,cl,2020-03-14 21:54:21,-37.62,-73.65,53.38,76.0,0.0,8.03
elk grove village,us,2020-03-14 21:56:46,42.0,-87.97,34.0,75.0,90.0,11.41
paita,pe,2020-03-14 21:56:46,-5.09,-81.11,80.26,64.0,91.0,5.55
upernavik,gl,2020-03-14 21:56:46,72.79,-56.15,-14.69,99.0,90.0,2.39
montanha,br,2020-03-14 21:56:47,-18.13,-40.36,69.28,97.0,92.0,3.71
tual,id,2020-03-14 21:56:47,-5.67,132.75,81.18,79.0,50.0,14.16
brindisi,it,2020-03-14 21:56:47,40.58,17.67,57.0,93.0,75.0,6.93
limbang,my,2020-03-14 21:56:47,4.75,115.0,87.8,70.0,40.0,10.29
tasiilaq,gl,2020-03-14 21:56:47,65.61,-37.64,1.4,70.0,2.0,1.12
carnarvon,au,2020-03-14 21:56:12,-24.87,113.63,82.4,65.0,75.0,9.17
nueve de julio,ar,2020-03-14 21:54:52,-35.44,-60.88,63.0,81.0,100.0,8.61
hofn,is,2020-03-14 21:46:40,64.25,-15.21,30.13,65.0,99.0,15.12
vardo,no,2020-03-14 21:56:47,70.37,31.11,19.04,92.0,100.0,35.72
tazovskiy,ru,2020-03-14 21:56:47,67.47,78.7,-0.81,88.0,100.0,16.53
itapeva,br,2020-03-14 21:56:48,-23.98,-48.88,65.44,97.0,5.0,4.56
katherine,au,2020-03-14 21:55:55,-14.47,132.27,96.8,32.0,0.0,12.75
kavaratti,in,2020-03-14 21:56:48,10.57,72.64,82.4,74.0,20.0,4.7
saldanha,za,2020-03-14 21:56:48,-33.01,17.94,62.6,77.0,13.0,16.11
lagunas,pe,2020-03-14 21:56:48,-5.23,-75.68,77.7,87.0,99.0,1.63
avarua,ck,2020-03-14 21:52:18,-21.21,-159.78,84.2,74.0,8.0,6.93
ahipara,nz,2020-03-14 21:56:48,-35.17,173.17,86.0,56.0,0.0,11.86
hami,cn,2020-03-14 21:56:49,42.8,93.45,43.72,22.0,100.0,1.59
tecoanapa,mx,2020-03-14 21:56:49,16.52,-98.75,75.36,78.0,0.0,1.21
marsh harbour,bs,2020-03-14 21:56:49,26.54,-77.06,73.36,81.0,60.0,10.25
puerto leguizamo,co,2020-03-14 21:56:49,-0.19,-74.78,72.0,98.0,100.0,1.97
esperance,au,2020-03-14 21:56:49,-33.87,121.9,75.2,57.0,100.0,20.8
chokurdakh,ru,2020-03-14 21:54:13,70.63,147.92,-15.93,88.0,33.0,1.48
stromness,gb,2020-03-14 21:50:40,58.97,-3.3,41.0,86.0,33.0,11.41
mahebourg,mu,2020-03-14 21:55:04,-20.41,57.7,75.99,94.0,40.0,7.81
tura,ru,2020-03-14 21:56:49,64.28,100.25,24.62,90.0,100.0,14.65
bria,cf,2020-03-14 21:56:49,6.54,21.99,67.39,37.0,49.0,0.74
maniwaki,ca,2020-03-14 21:56:50,46.38,-75.97,19.33,69.0,66.0,9.95
baykit,ru,2020-03-14 21:49:38,61.67,96.37,29.19,91.0,96.0,10.2
itoman,jp,2020-03-14 21:54:56,26.12,127.67,62.6,48.0,0.0,18.34
opuwo,na,2020-03-14 21:49:27,-18.06,13.84,68.16,53.0,100.0,6.76
diamantino,br,2020-03-14 21:54:04,-14.41,-56.45,72.68,94.0,100.0,3.91
yulara,au,2020-03-14 21:56:50,-25.24,130.99,89.6,18.0,0.0,13.87
ilulissat,gl,2020-03-14 21:54:49,69.22,-51.1,-0.4,70.0,97.0,9.17
kirakira,sb,2020-03-14 21:56:50,-10.45,161.92,82.99,76.0,94.0,12.37
fare,pf,2020-03-14 21:56:50,-16.7,-151.02,83.12,75.0,0.0,12.01
matara,lk,2020-03-14 21:56:53,5.95,80.54,82.18,65.0,18.0,6.22
dandong,cn,2020-03-14 21:56:54,40.13,124.39,37.09,31.0,29.0,20.49
pevek,ru,2020-03-14 21:54:09,69.7,170.31,7.63,67.0,100.0,8.12
vostok,ru,2020-03-14 21:56:54,46.49,135.88,20.57,83.0,100.0,6.08
verkhovyna,ua,2020-03-14 21:56:54,48.16,24.79,19.33,83.0,100.0,5.46
port elizabeth,za,2020-03-14 21:52:12,-33.92,25.57,68.0,77.0,79.0,12.75
beloha,mg,2020-03-14 21:56:54,-25.17,45.05,70.77,85.0,85.0,10.33
koutsouras,gr,2020-03-14 21:56:54,35.03,25.95,57.0,88.0,99.0,1.99
tiassale,ci,2020-03-14 21:56:54,5.9,-4.83,77.76,90.0,97.0,2.42
truro,ca,2020-03-14 21:56:54,45.37,-63.27,32.0,69.0,40.0,19.46
skjervoy,no,2020-03-14 21:48:33,70.03,20.97,35.29,64.0,100.0,19.33
sao filipe,cv,2020-03-14 21:56:54,14.9,-24.5,73.15,57.0,0.0,13.91
thompson,ca,2020-03-14 21:53:00,55.74,-97.86,-7.6,52.0,20.0,4.74
aykhal,ru,2020-03-14 21:47:30,66.0,111.5,21.2,79.0,97.0,6.71
oranjemund,na,2020-03-14 21:56:55,-28.55,16.43,59.94,94.0,3.0,8.72
kampong chhnang,kh,2020-03-14 21:56:55,12.17,104.55,86.61,52.0,82.0,10.07
kahului,us,2020-03-14 21:56:12,20.89,-156.47,78.8,78.0,40.0,11.41
machala,ec,2020-03-14 21:56:55,-3.27,-79.97,89.6,78.0,90.0,2.24
abeche,td,2020-03-14 21:54:52,13.83,20.83,69.22,16.0,68.0,18.63
tortoli,it,2020-03-14 21:56:55,39.93,9.66,55.4,93.0,75.0,12.75
yerofey pavlovich,ru,2020-03-14 21:56:55,53.97,121.97,10.49,84.0,0.0,6.2
jalu,ly,2020-03-14 21:55:30,29.03,21.55,58.71,44.0,48.0,2.77
torbay,ca,2020-03-14 21:54:25,47.67,-52.73,34.0,85.0,75.0,24.16
catamarca,ar,2020-03-14 21:50:34,-28.47,-65.79,75.99,70.0,81.0,1.99
te anau,nz,2020-03-14 21:56:56,-45.42,167.72,61.65,67.0,100.0,7.18
kiunga,pg,2020-03-14 21:56:56,-6.12,141.29,83.23,80.0,31.0,4.36
byron bay,au,2020-03-14 21:55:45,-28.65,153.62,78.01,78.0,75.0,19.46
dawei,mm,2020-03-14 21:56:56,14.08,98.2,80.19,63.0,75.0,0.31
namibe,ao,2020-03-14 21:56:56,-15.2,12.15,76.46,76.0,87.0,3.69
tuktoyaktuk,ca,2020-03-14 21:56:56,69.45,-133.04,23.0,92.0,40.0,32.21
santa vitoria do palmar,br,2020-03-14 21:56:57,-33.52,-53.37,68.94,92.0,100.0,12.41
vila velha,br,2020-03-14 21:56:57,-20.33,-40.29,75.2,94.0,40.0,2.24
tucuma,br,2020-03-14 21:56:57,-0.18,-50.05,77.23,93.0,100.0,7.9
mudbidri,in,2020-03-14 21:56:57,13.08,74.98,77.0,78.0,20.0,4.7
great falls,us,2020-03-14 21:56:57,47.5,-111.3,1.4,77.0,90.0,10.29
korla,cn,2020-03-14 21:56:57,41.76,86.15,36.01,29.0,100.0,3.49
ajdabiya,ly,2020-03-14 21:56:57,30.76,20.23,64.67,60.0,67.0,6.96
bodden town,ky,2020-03-14 21:56:57,19.28,-81.25,78.8,88.0,20.0,6.93
sobolevo,ru,2020-03-14 21:56:57,54.43,31.9,24.91,60.0,96.0,17.18
okhotsk,ru,2020-03-14 21:56:58,59.38,143.3,9.05,87.0,100.0,4.99
teya,ru,2020-03-14 21:56:58,60.38,92.63,31.42,88.0,100.0,14.52
southbridge,nz,2020-03-14 21:56:58,-43.82,172.25,64.99,68.0,100.0,21.92
leningradskiy,ru,2020-03-14 21:54:26,69.38,178.42,6.15,76.0,95.0,13.69
selma,us,2020-03-14 21:55:53,36.57,-119.61,63.0,55.0,100.0,5.82
cap malheureux,mu,2020-03-14 21:56:14,-19.98,57.61,75.99,94.0,40.0,10.65
ostrovnoy,ru,2020-03-14 21:56:58,68.05,39.51,0.46,91.0,35.0,15.43
jaicos,br,2020-03-14 21:56:58,-7.36,-41.14,73.74,77.0,100.0,2.44
thinadhoo,mv,2020-03-14 21:55:52,0.53,72.93,83.5,61.0,90.0,4.65
kiruna,se,2020-03-14 21:49:26,67.86,20.23,23.0,73.0,96.0,31.09
elko,us,2020-03-14 21:56:59,41.0,-115.5,42.8,75.0,90.0,10.29
cidreira,br,2020-03-14 21:56:59,-30.18,-50.21,76.06,89.0,0.0,23.31
kalyazin,ru,2020-03-14 21:56:59,57.24,37.84,22.89,73.0,100.0,10.33
katsuura,jp,2020-03-14 21:56:59,35.13,140.3,51.01,57.0,75.0,6.93
hasaki,jp,2020-03-14 21:56:59,35.73,140.83,52.0,45.0,40.0,5.82
mount gambier,au,2020-03-14 21:56:15,-37.83,140.77,66.2,48.0,90.0,12.75
teguise,es,2020-03-14 21:55:10,29.06,-13.56,57.2,76.0,16.0,3.36
prince george,ca,2020-03-14 21:57:00,53.92,-122.75,17.6,44.0,1.0,13.87
comodoro rivadavia,ar,2020-03-14 21:50:33,-45.87,-67.5,57.2,54.0,56.0,3.36
severo-kurilsk,ru,2020-03-14 21:57:00,50.68,156.12,21.76,80.0,100.0,9.4
paamiut,gl,2020-03-14 21:50:12,61.99,-49.67,4.01,68.0,100.0,6.6
vestmanna,fo,2020-03-14 21:57:00,62.16,-7.17,35.6,64.0,100.0,32.21
boyolangu,id,2020-03-14 21:57:00,-8.12,111.89,86.72,62.0,1.0,3.31
bilibino,ru,2020-03-14 21:57:00,68.05,166.44,2.97,85.0,100.0,6.11
grindavik,is,2020-03-14 21:57:00,63.84,-22.43,21.2,73.0,0.0,5.82
punto fijo,ve,2020-03-14 21:53:02,11.7,-70.2,76.96,82.0,0.0,15.37
ballina,au,2020-03-14 21:57:00,-28.87,153.57,71.6,78.0,75.0,19.46
east london,za,2020-03-14 21:56:37,-33.02,27.91,70.57,82.0,88.0,14.9
bathsheba,bb,2020-03-14 21:57:01,13.22,-59.52,78.8,78.0,75.0,9.17
jacmel,ht,2020-03-14 21:57:01,18.23,-72.53,77.0,73.0,3.0,14.99
el real de santa maria,pa,2020-03-14 21:57:01,8.11,-77.73,70.45,92.0,0.0,2.3
san patricio,mx,2020-03-14 21:55:13,19.22,-104.7,80.6,83.0,75.0,3.89
khandyga,ru,2020-03-14 21:57:01,62.67,135.6,-4.32,90.0,100.0,2.95
narsaq,gl,2020-03-14 21:55:16,60.92,-46.05,21.2,62.0,100.0,4.32
obo,cf,2020-03-14 21:57:01,5.4,26.49,74.17,75.0,100.0,1.77
tarko-sale,ru,2020-03-14 21:50:02,64.92,77.78,12.38,92.0,96.0,18.99
lourdes,fr,2020-03-14 21:57:01,43.1,-0.05,41.0,100.0,0.0,1.12
maningrida,au,2020-03-14 21:57:01,-12.07,134.27,87.58,55.0,25.0,0.87
ambon,id,2020-03-14 21:57:02,-3.7,128.18,84.2,70.0,40.0,3.36
road town,vg,2020-03-14 21:50:05,18.42,-64.62,75.2,83.0,90.0,12.75
batagay-alyta,ru,2020-03-14 21:57:02,67.8,130.41,-17.23,86.0,0.0,5.84
biltine,td,2020-03-14 21:55:50,14.53,20.92,66.61,18.0,22.0,10.56
ragama,lk,2020-03-14 21:57:02,7.03,79.92,80.6,78.0,0.0,4.7
chipata,zm,2020-03-14 21:57:02,-13.63,32.65,66.38,95.0,100.0,2.21
la ronge,ca,2020-03-14 21:57:02,55.1,-105.28,3.2,65.0,75.0,3.36
sibolga,id,2020-03-14 21:57:02,1.74,98.78,87.6,56.0,40.0,2.28
chuy,uy,2020-03-14 21:53:15,-33.7,-53.46,68.94,92.0,100.0,12.41
ancud,cl,2020-03-14 21:54:47,-41.87,-73.82,46.4,93.0,16.0,4.7
cockburn town,bs,2020-03-14 21:57:03,24.03,-74.52,74.53,78.0,0.0,18.3
aguimes,es,2020-03-14 21:49:15,27.91,-15.45,64.4,68.0,75.0,14.99
meybod,ir,2020-03-14 21:57:03,32.25,54.02,59.0,38.0,40.0,2.24
warrington,us,2020-03-14 21:57:03,30.38,-87.28,68.0,100.0,90.0,3.09
fairbanks,us,2020-03-14 21:53:44,64.84,-147.72,26.6,62.0,90.0,5.82
ugoofaaru,mv,2020-03-14 21:50:01,5.67,73.0,83.97,71.0,0.0,11.77
tomatlan,mx,2020-03-14 21:57:03,19.93,-105.25,67.28,95.0,6.0,0.89
teknaf,bd,2020-03-14 21:57:04,20.86,92.31,92.21,30.0,45.0,1.21
xifeng,cn,2020-03-14 21:50:26,42.74,124.72,25.9,42.0,100.0,21.88
taldan,ru,2020-03-14 21:57:04,53.67,124.8,8.22,81.0,7.0,8.03
guantanamo,cu,2020-03-14 21:57:04,20.14,-75.21,78.8,65.0,20.0,13.87
constantine,dz,2020-03-14 21:57:04,36.37,6.61,41.0,93.0,20.0,2.24
tucumcari,us,2020-03-14 21:57:04,35.17,-103.72,53.6,58.0,1.0,8.05
san rafael,ph,2020-03-14 21:57:04,13.22,123.6,84.51,58.0,17.0,5.84
tilichiki,ru,2020-03-14 21:55:17,60.47,166.1,26.47,91.0,100.0,5.35
lewistown,us,2020-03-14 21:57:04,40.6,-77.57,45.0,60.0,75.0,3.29
agadez,ne,2020-03-14 21:57:05,19.75,10.25,58.73,20.0,0.0,2.3
imbituba,br,2020-03-14 21:57:05,-28.24,-48.67,78.8,61.0,75.0,12.75
solnechnyy,ru,2020-03-14 21:49:26,50.72,136.63,18.28,62.0,13.0,4.54
mayor pablo lagerenza,py,2020-03-14 21:57:05,-19.93,-60.77,84.56,52.0,27.0,6.13
jiwani,pk,2020-03-14 21:57:05,25.05,61.74,73.38,64.0,100.0,5.68
ivybridge,gb,2020-03-14 21:57:05,50.39,-3.92,50.0,96.0,100.0,8.99
cukai,my,2020-03-14 21:50:42,4.25,103.42,84.2,83.0,40.0,8.05
mar del plata,ar,2020-03-14 21:54:36,-38.0,-57.56,64.99,82.0,75.0,3.36
pangnirtung,ca,2020-03-14 21:57:05,66.15,-65.71,-34.33,98.0,100.0,0.72
morgan city,us,2020-03-14 21:57:06,29.7,-91.21,72.0,100.0,1.0,6.22
isangel,vu,2020-03-14 21:54:41,-19.55,169.27,84.2,83.0,90.0,13.87
norman wells,ca,2020-03-14 21:54:50,65.28,-126.83,19.4,92.0,90.0,19.42
flinders,au,2020-03-14 21:57:06,-34.58,150.86,68.0,63.0,90.0,11.41
margate,za,2020-03-14 21:57:06,-30.86,30.37,76.51,82.0,100.0,12.66
vagamo,no,2020-03-14 21:57:06,61.88,9.1,8.24,97.0,100.0,5.88
murgab,tm,2020-03-14 21:57:06,37.5,61.97,57.2,47.0,90.0,11.41
kodiak,us,2020-03-14 21:56:11,57.79,-152.41,39.2,55.0,40.0,4.7
camalu,mx,2020-03-14 21:57:07,30.85,-116.07,56.5,77.0,99.0,4.5
kalmunai,lk,2020-03-14 21:57:07,7.42,81.82,82.58,69.0,100.0,8.7
mahibadhoo,mv,2020-03-14 21:57:07,3.78,72.97,83.43,74.0,35.0,7.09
gorom-gorom,bf,2020-03-14 21:57:07,14.44,-0.24,75.27,11.0,0.0,9.42
mabaruma,gy,2020-03-14 21:57:07,8.2,-59.78,71.51,99.0,91.0,1.57
riyadh,sa,2020-03-14 21:54:55,24.69,46.72,64.4,48.0,46.0,4.7
muscatine,us,2020-03-14 21:57:07,41.47,-91.13,33.8,86.0,90.0,8.05
tyup,kg,2020-03-14 21:57:07,42.73,78.36,32.58,46.0,100.0,1.79
lugazi,ug,2020-03-14 21:57:07,0.38,32.92,64.2,95.0,4.0,1.68
lazaro cardenas,mx,2020-03-14 21:57:08,17.96,-102.2,75.85,87.0,27.0,0.6
benjamin hill,mx,2020-03-14 21:57:08,30.17,-111.1,61.0,67.0,0.0,5.97
hurghada,eg,2020-03-14 21:49:07,27.26,33.81,68.72,73.0,0.0,15.3
dunmore east,ie,2020-03-14 21:57:08,52.15,-6.99,46.99,93.0,100.0,5.99
sioux lookout,ca,2020-03-14 21:57:08,50.1,-91.92,15.8,36.0,20.0,3.36
paralimni,cy,2020-03-14 21:57:08,35.04,33.98,57.2,87.0,75.0,3.36
lufilufi,ws,2020-03-14 21:50:41,-13.87,-171.6,87.01,70.0,55.0,11.01
papillion,us,2020-03-14 21:57:08,41.15,-96.04,35.01,86.0,90.0,9.17
den chai,th,2020-03-14 21:57:08,17.98,100.05,97.0,52.0,68.0,4.36
nelson bay,au,2020-03-14 21:57:09,-32.72,152.15,73.4,60.0,40.0,20.8
angul,in,2020-03-14 21:57:09,20.85,85.1,78.42,53.0,0.0,5.32
rio blanco,ni,2020-03-14 21:57:09,12.93,-85.22,69.75,95.0,0.0,3.65
sinop,tr,2020-03-14 21:57:09,41.77,34.87,47.52,89.0,96.0,4.83
potiskum,ng,2020-03-14 21:57:09,11.71,11.07,64.89,16.0,100.0,9.26
slave lake,ca,2020-03-14 21:57:09,55.28,-114.77,-0.4,70.0,1.0,3.36
iquique,cl,2020-03-14 21:52:49,-20.22,-70.14,73.4,69.0,90.0,8.05
zheleznodorozhnyy,ru,2020-03-14 21:57:09,55.75,38.0,24.01,67.0,99.0,17.9
petropavlovsk-kamchatskiy,ru,2020-03-14 21:50:06,53.05,158.65,28.4,42.0,90.0,8.95
peleduy,ru,2020-03-14 21:57:09,59.63,112.74,32.09,91.0,100.0,10.78
bambanglipuro,id,2020-03-14 21:57:10,-7.95,110.28,86.86,65.0,66.0,1.39
havelock,us,2020-03-14 21:50:47,34.88,-76.9,59.0,58.0,90.0,12.75
nara,ml,2020-03-14 21:49:20,15.17,-7.29,77.0,10.0,3.0,8.81
socorro,us,2020-03-14 21:57:10,31.65,-106.3,68.0,48.0,1.0,2.3
sakata,jp,2020-03-14 21:57:10,38.92,139.85,41.0,52.0,75.0,9.17
cheltenham,gb,2020-03-14 21:52:39,51.9,-2.08,51.01,81.0,75.0,14.99
aksarka,ru,2020-03-14 21:57:10,66.56,67.8,-6.38,89.0,95.0,8.28
valparaiso,cl,2020-03-14 21:49:00,-33.04,-71.63,60.8,77.0,0.0,4.7
saskylakh,ru,2020-03-14 21:57:10,71.92,114.08,5.95,92.0,100.0,12.01
pitiquito,mx,2020-03-14 21:49:23,30.7,-112.08,64.0,58.0,0.0,5.99
akdepe,tm,2020-03-14 21:57:10,42.06,59.38,57.2,35.0,100.0,11.41
kem,ru,2020-03-14 21:57:11,64.96,34.58,3.61,91.0,0.0,7.38
srikakulam,in,2020-03-14 21:57:11,18.3,83.9,82.45,55.0,0.0,6.58
kaeo,nz,2020-03-14 21:57:11,-35.1,173.78,86.0,68.0,0.0,8.01
longyearbyen,sj,2020-03-14 21:57:11,78.22,15.64,-2.2,77.0,90.0,5.82
port-gentil,ga,2020-03-14 21:57:11,-0.72,8.78,82.94,77.0,97.0,7.87
darnah,ly,2020-03-14 21:55:03,32.77,22.64,62.94,69.0,94.0,11.01
marica,br,2020-03-14 21:57:11,-22.92,-42.82,80.6,88.0,1.0,4.7
naze,jp,2020-03-14 21:57:11,28.37,129.48,62.6,42.0,75.0,17.22
pemba,mz,2020-03-14 21:57:11,-12.97,40.52,75.2,94.0,40.0,5.82
dudinka,ru,2020-03-14 21:50:17,69.41,86.18,4.17,93.0,100.0,14.83
dingle,ie,2020-03-14 21:57:11,52.14,-10.27,46.71,73.0,82.0,23.15
governador valadares,br,2020-03-14 21:53:55,-18.85,-41.95,69.85,96.0,0.0,3.76
maraa,br,2020-03-14 21:57:12,-1.83,-65.37,75.09,98.0,100.0,3.38
biak,id,2020-03-14 21:57:12,-0.91,122.88,83.28,69.0,46.0,7.58
ayolas,py,2020-03-14 21:57:12,-27.4,-56.9,84.88,42.0,100.0,3.58
nanakuli,us,2020-03-14 21:57:12,21.39,-158.15,80.6,88.0,75.0,9.17
birecik,tr,2020-03-14 21:57:12,37.03,37.99,51.01,93.0,40.0,5.82
general roca,ar,2020-03-14 21:57:12,-39.03,-67.58,63.37,16.0,0.0,8.25
altay,cn,2020-03-14 21:57:12,47.87,88.12,26.47,67.0,0.0,4.76
athabasca,ca,2020-03-14 21:57:12,54.72,-113.29,-4.61,99.0,69.0,0.81
cradock,za,2020-03-14 21:57:12,-32.16,25.62,60.6,88.0,19.0,6.06
corrales,pe,2020-03-14 21:57:13,-15.47,-71.5,42.22,83.0,100.0,4.65
tautira,pf,2020-03-14 21:57:13,-17.73,-149.15,87.8,66.0,40.0,11.41
kosjeric,rs,2020-03-14 21:57:13,44.0,19.91,41.0,69.0,100.0,4.7
muravlenko,ru,2020-03-14 21:57:13,63.79,74.52,4.77,94.0,99.0,15.86
kununurra,au,2020-03-14 21:57:13,-15.77,128.73,95.0,28.0,0.0,16.11
itaqui,br,2020-03-14 21:57:13,-29.13,-56.55,83.91,41.0,21.0,5.41
grafton,au,2020-03-14 21:57:13,-29.68,152.93,69.01,88.0,75.0,13.87
baherden,tm,2020-03-14 21:49:28,38.44,57.43,68.25,27.0,100.0,11.77
susehri,tr,2020-03-14 21:50:19,40.16,38.09,32.97,89.0,47.0,3.06
aconibe,gq,2020-03-14 21:57:14,1.3,10.94,68.22,98.0,22.0,2.19
yar-sale,ru,2020-03-14 21:55:14,66.83,70.83,-8.54,87.0,10.0,10.74
petukhovo,ru,2020-03-14 21:57:14,55.07,67.9,33.06,97.0,100.0,12.06
champerico,gt,2020-03-14 21:54:53,14.3,-91.92,78.58,75.0,27.0,2.28
dali,cn,2020-03-14 21:57:14,25.7,100.18,66.4,41.0,24.0,5.41
miraflores,co,2020-03-14 21:57:14,1.34,-71.95,74.7,94.0,99.0,0.58
yantal,ru,2020-03-14 21:57:14,56.85,105.25,32.02,92.0,100.0,9.08
kamiiso,jp,2020-03-14 21:57:14,41.82,140.65,39.2,44.0,20.0,10.29
amapa,br,2020-03-14 21:53:41,1.0,-52.0,73.58,95.0,100.0,3.27
bandarbeyla,so,2020-03-14 21:57:15,9.49,50.81,78.96,76.0,98.0,8.34
kuala kedah,my,2020-03-14 21:57:15,6.1,100.3,89.6,79.0,20.0,3.36
clyde river,ca,2020-03-14 21:57:15,70.47,-68.59,-29.2,73.0,1.0,5.82
belmonte,br,2020-03-14 21:57:15,-15.86,-38.88,80.6,74.0,40.0,6.93
itarema,br,2020-03-14 21:44:52,-2.92,-39.92,74.59,95.0,81.0,2.73
olafsvik,is,2020-03-14 21:54:44,64.89,-23.71,26.78,64.0,98.0,14.7
springbok,za,2020-03-14 21:57:15,-29.66,17.89,48.87,77.0,0.0,2.26
pacifica,us,2020-03-14 21:49:57,37.61,-122.49,51.8,87.0,90.0,8.05
watrous,ca,2020-03-14 21:57:16,51.67,-105.47,10.69,81.0,100.0,11.61
antalaha,mg,2020-03-14 21:57:16,-14.9,50.28,79.45,91.0,100.0,38.5
boralday,kz,2020-03-14 21:57:16,43.36,76.86,44.6,56.0,40.0,4.47
burlington,us,2020-03-14 21:56:51,39.88,-74.64,51.01,39.0,90.0,4.7
axim,gh,2020-03-14 21:46:49,4.87,-2.24,75.7,92.0,100.0,3.69
texarkana,us,2020-03-14 21:57:17,33.43,-94.05,70.0,93.0,90.0,11.41
shangrao,cn,2020-03-14 21:57:17,28.45,117.97,61.47,52.0,0.0,4.47
salina,us,2020-03-14 21:57:17,38.84,-97.61,37.4,86.0,90.0,9.17
tessalit,ml,2020-03-14 21:57:17,20.2,1.01,72.0,13.0,2.0,12.24
kavieng,pg,2020-03-14 21:56:21,-2.57,150.8,85.37,64.0,99.0,5.23
inta,ru,2020-03-14 21:57:17,66.03,60.17,3.38,89.0,100.0,9.4
nanchang,cn,2020-03-14 21:54:44,28.68,115.88,63.32,48.0,0.0,4.59
besancon,fr,2020-03-14 21:57:18,47.25,6.02,39.99,86.0,49.0,5.82
galle,lk,2020-03-14 21:57:18,6.04,80.22,79.57,78.0,6.0,5.06
collie,au,2020-03-14 21:55:18,-33.37,116.15,72.0,77.0,49.0,8.99
ormara,pk,2020-03-14 21:57:18,25.21,64.64,72.18,57.0,100.0,0.36
treinta y tres,uy,2020-03-14 21:57:18,-33.23,-54.38,68.43,97.0,100.0,10.16
nadym,ru,2020-03-14 21:57:18,65.53,72.52,-0.81,93.0,93.0,13.47
mackay,au,2020-03-14 21:57:18,-21.15,149.2,84.99,51.0,11.0,13.87
porto seguro,br,2020-03-14 21:56:17,-16.45,-39.06,80.6,74.0,40.0,6.93
agua prieta,mx,2020-03-14 21:55:06,31.3,-109.57,57.2,42.0,1.0,9.17
labuhan,id,2020-03-14 21:57:19,-6.88,112.21,86.65,70.0,22.0,1.99
zhigansk,ru,2020-03-14 21:49:58,66.77,123.37,-3.84,94.0,100.0,23.09
antofagasta,cl,2020-03-14 21:55:11,-23.65,-70.4,66.2,77.0,90.0,6.93
mahajanga,mg,2020-03-14 21:55:25,-15.72,46.32,78.8,94.0,40.0,8.75
arman,ru,2020-03-14 21:57:19,59.7,150.17,12.81,88.0,100.0,7.52
kruisfontein,za,2020-03-14 21:56:20,-34.0,24.73,62.2,84.0,10.0,8.63
tonantins,br,2020-03-14 21:57:19,-2.87,-67.8,76.21,94.0,100.0,2.06
nizhnevartovsk,ru,2020-03-14 21:57:19,60.93,76.55,35.6,96.0,90.0,13.42
torzhok,ru,2020-03-14 21:57:19,57.04,34.96,21.99,79.0,96.0,11.12
virden,ca,2020-03-14 21:57:19,49.85,-100.93,7.81,94.0,100.0,9.44
sapucaia,br,2020-03-14 21:57:19,-29.83,-51.15,84.2,69.0,0.0,3.36
kaoma,zm,2020-03-14 21:54:15,-14.78,24.8,64.78,97.0,100.0,2.3
dwarka,in,2020-03-14 21:57:20,22.24,68.97,74.43,50.0,100.0,18.75
yumen,cn,2020-03-14 21:57:20,40.28,97.2,43.5,19.0,100.0,20.15
batagay,ru,2020-03-14 21:57:20,67.63,134.63,-11.63,77.0,28.0,2.51
oktyabrskiy,ru,2020-03-14 21:57:20,54.48,53.47,32.11,98.0,100.0,5.5
salinopolis,br,2020-03-14 21:50:07,-0.61,-47.36,81.37,82.0,100.0,10.22
henties bay,na,2020-03-14 21:49:21,-22.12,14.28,62.01,94.0,0.0,2.98
san vicente,ph,2020-03-14 21:50:42,15.3,120.65,84.2,70.0,75.0,2.24
kautokeino,no,2020-03-14 21:57:20,69.01,23.04,22.62,76.0,100.0,28.79
alofi,nu,2020-03-14 21:57:20,-19.06,-169.92,86.0,74.0,100.0,8.05
kieta,pg,2020-03-14 21:57:21,-6.22,155.63,84.63,76.0,100.0,15.64
walvis bay,na,2020-03-14 21:55:44,-22.96,14.51,62.01,94.0,0.0,9.4
churapcha,ru,2020-03-14 21:57:24,62.0,132.43,-1.19,84.0,99.0,5.57
strezhevoy,ru,2020-03-14 21:57:24,60.73,77.59,35.6,94.0,90.0,13.42
hailey,us,2020-03-14 21:57:24,43.52,-114.32,37.4,96.0,75.0,10.29
singaraja,id,2020-03-14 21:49:55,-8.11,115.09,84.4,70.0,98.0,5.41
hambantota,lk,2020-03-14 21:57:24,6.12,81.12,80.6,88.0,5.0,4.7
ust-tsilma,ru,2020-03-14 21:56:16,65.44,52.15,0.79,89.0,71.0,4.61
datong,cn,2020-03-14 21:57:24,40.09,113.29,43.83,25.0,0.0,6.91
taunton,gb,2020-03-14 21:57:24,51.02,-3.1,51.01,93.0,90.0,12.75
villa sandino,ni,2020-03-14 21:57:25,12.05,-84.99,70.11,94.0,4.0,6.33
cangzhou,cn,2020-03-14 21:57:25,38.32,116.87,56.82,25.0,0.0,11.32
moussoro,td,2020-03-14 21:57:25,13.64,16.49,64.49,17.0,22.0,11.23
tornio,fi,2020-03-14 21:57:25,65.85,24.15,28.4,79.0,100.0,23.04
dunedin,nz,2020-03-14 21:57:25,-45.87,170.5,62.01,76.0,100.0,4.0
halmeu,ro,2020-03-14 21:57:25,47.97,23.02,35.6,59.0,0.0,13.87
humaita,br,2020-03-14 21:50:46,-7.51,-63.02,73.71,98.0,99.0,4.59
hobyo,so,2020-03-14 21:57:25,5.35,48.53,79.88,80.0,56.0,13.33
the valley,ai,2020-03-14 21:57:11,18.22,-63.06,78.01,83.0,20.0,9.17
touzim,cz,2020-03-14 21:57:26,50.06,12.99,32.0,74.0,0.0,6.93
praia da vitoria,pt,2020-03-14 21:57:26,38.73,-27.07,55.4,93.0,20.0,3.85
jamsa,fi,2020-03-14 21:57:26,61.86,25.19,21.0,85.0,0.0,8.05
tolosa,es,2020-03-14 21:57:26,43.13,-2.08,46.0,93.0,0.0,4.7
lyantonde,ug,2020-03-14 21:57:26,-0.4,31.16,63.28,93.0,64.0,2.04
leh,in,2020-03-14 21:57:26,34.17,77.58,9.45,62.0,100.0,1.86
camacha,pt,2020-03-14 21:57:26,33.08,-16.33,60.8,63.0,75.0,14.99
pratapgarh,in,2020-03-14 21:57:26,24.03,74.78,66.52,34.0,61.0,8.43
teruel,es,2020-03-14 21:57:27,40.67,-0.67,46.4,87.0,17.0,6.93
luba,gq,2020-03-14 21:57:27,3.46,8.55,77.0,88.0,20.0,3.36
santa maria,cv,2020-03-14 21:57:27,16.6,-22.9,69.8,83.0,40.0,11.41
emerald,au,2020-03-14 21:57:27,-23.53,148.17,87.01,39.0,40.0,10.29
port augusta,au,2020-03-14 21:57:27,-32.5,137.77,73.0,45.0,68.0,10.29
coahuayana,mx,2020-03-14 21:54:17,18.73,-103.68,71.6,94.0,75.0,1.43
baghdad,iq,2020-03-14 21:57:27,33.34,44.4,59.0,93.0,75.0,2.24
mbengwi,cm,2020-03-14 21:57:27,6.02,10.0,63.61,20.0,0.0,1.77
novoseleznevo,ru,2020-03-14 21:57:27,55.68,69.21,32.52,97.0,100.0,10.18
namatanai,pg,2020-03-14 21:50:03,-3.67,152.43,84.18,72.0,100.0,10.42
narnaul,in,2020-03-14 21:53:00,28.04,76.11,62.2,45.0,0.0,3.65
nenjiang,cn,2020-03-14 21:57:28,49.18,125.22,10.29,79.0,23.0,11.74
klaksvik,fo,2020-03-14 21:52:58,62.23,-6.59,35.6,64.0,100.0,32.21
boromo,bf,2020-03-14 21:57:28,11.75,-2.93,81.0,33.0,93.0,1.81
anchorage,us,2020-03-14 21:54:10,61.22,-149.9,32.0,30.0,1.0,4.7
barda,ru,2020-03-14 21:57:28,56.93,55.59,29.26,96.0,100.0,0.09
ust-kuyga,ru,2020-03-14 21:57:28,70.02,135.6,-17.75,86.0,0.0,8.08
tezu,in,2020-03-14 21:50:47,27.92,96.17,71.89,68.0,99.0,1.74
joson,ph,2020-03-14 21:57:29,15.93,120.99,86.29,48.0,39.0,1.63
yuzhno-kurilsk,ru,2020-03-14 21:57:29,44.03,145.86,30.09,72.0,96.0,10.2
tshikapa,cd,2020-03-14 21:50:44,-6.42,20.8,69.91,96.0,100.0,1.83
kloulklubed,pw,2020-03-14 21:49:25,7.04,134.26,86.0,66.0,75.0,8.05
dalbandin,pk,2020-03-14 21:49:45,28.89,64.41,64.2,22.0,100.0,1.59
pontes e lacerda,br,2020-03-14 21:57:29,-15.23,-59.34,73.54,93.0,70.0,2.17
luderitz,na,2020-03-14 21:56:16,-26.65,15.16,64.4,77.0,0.0,4.7
sao joao da barra,br,2020-03-14 21:53:08,-21.64,-41.05,78.12,85.0,67.0,6.11
chenzhou,cn,2020-03-14 21:57:29,25.8,113.03,65.82,65.0,0.0,1.23
sadon,ru,2020-03-14 21:57:29,42.85,44.0,38.98,97.0,100.0,1.7
alekseyevsk,ru,2020-03-14 21:57:30,57.84,108.35,30.81,96.0,100.0,9.82
longhua,cn,2020-03-14 21:57:30,23.61,114.19,69.12,36.0,0.0,4.99
stornoway,gb,2020-03-14 21:57:30,58.21,-6.39,44.6,87.0,35.0,25.28
klyuchi,ru,2020-03-14 21:57:30,52.27,79.17,34.0,93.0,100.0,11.74
eureka,us,2020-03-14 21:57:30,40.8,-124.16,44.01,81.0,90.0,17.22
parrita,cr,2020-03-14 21:57:30,9.52,-84.32,71.6,68.0,5.0,17.22
sur,om,2020-03-14 21:57:30,22.57,59.53,68.09,34.0,99.0,7.65
machali,cl,2020-03-14 21:57:30,-34.18,-70.67,51.76,49.0,0.0,2.68
fukue,jp,2020-03-14 21:57:30,32.69,128.84,55.4,43.0,40.0,16.11
poim,ru,2020-03-14 21:57:30,53.03,43.19,32.05,87.0,98.0,12.3
fortuna,us,2020-03-14 21:57:31,40.6,-124.16,44.01,86.0,75.0,13.87
tommot,ru,2020-03-14 21:57:31,58.96,126.29,9.93,91.0,100.0,3.56
aleksandrovsk-sakhalinskiy,ru,2020-03-14 21:57:31,50.9,142.16,20.44,84.0,93.0,17.36
vammala,fi,2020-03-14 21:57:31,61.33,22.9,23.0,73.0,40.0,10.29
yelovo,ru,2020-03-14 21:57:31,57.05,54.92,29.91,94.0,100.0,0.87
poum,nc,2020-03-14 21:57:31,-20.23,164.02,84.09,79.0,100.0,52.48
altamira,br,2020-03-14 21:57:31,-3.2,-52.21,73.63,99.0,100.0,4.81
monkey bay,mw,2020-03-14 21:57:31,-14.07,34.92,78.15,75.0,95.0,12.37
xiaoweizhai,cn,2020-03-14 21:57:31,26.19,107.51,59.02,62.0,80.0,4.59
zhangjiakou,cn,2020-03-14 21:56:14,40.81,114.88,38.14,48.0,39.0,13.53
whitecourt,ca,2020-03-14 21:57:31,54.15,-115.69,1.4,49.0,5.0,6.93
trabzon,tr,2020-03-14 21:57:32,40.92,39.83,50.0,93.0,75.0,8.05
matay,eg,2020-03-14 21:50:44,28.42,30.78,59.56,82.0,4.0,2.66
huron,us,2020-03-14 21:57:32,41.15,-82.55,34.0,86.0,75.0,12.75
mandera,ke,2020-03-14 21:57:32,3.94,41.87,78.84,69.0,11.0,12.68
lac du bonnet,ca,2020-03-14 21:57:32,50.25,-96.06,12.24,94.0,72.0,3.98
abu kamal,sy,2020-03-14 21:55:31,34.45,40.92,57.09,79.0,98.0,12.57
ofunato,jp,2020-03-14 21:57:32,39.07,141.72,39.2,51.0,75.0,2.24
luanda,ao,2020-03-14 21:57:15,-8.84,13.23,80.6,83.0,75.0,5.82
nagato,jp,2020-03-14 21:57:32,34.38,131.2,53.6,51.0,40.0,18.34
wencheng,cn,2020-03-14 21:57:33,33.06,113.8,65.39,35.0,0.0,7.07
omboue,ga,2020-03-14 21:57:33,-1.57,9.26,76.73,91.0,100.0,2.21
portland,au,2020-03-14 21:49:18,-38.33,141.6,59.14,70.0,80.0,15.26
waddan,ly,2020-03-14 21:57:33,29.16,16.14,62.29,25.0,0.0,4.61
saint-ambroise,ca,2020-03-14 21:57:33,48.55,-71.33,17.6,67.0,90.0,24.16
luena,ao,2020-03-14 21:57:33,-11.78,19.92,61.61,94.0,100.0,1.7
nishihara,jp,2020-03-14 21:57:33,26.18,127.76,62.6,48.0,0.0,18.34
khash,ir,2020-03-14 21:47:03,28.22,61.22,58.15,34.0,100.0,7.18
borogontsy,ru,2020-03-14 21:57:33,62.67,131.17,-2.29,90.0,100.0,5.23
seredka,ru,2020-03-14 21:57:34,58.16,28.19,26.6,49.0,0.0,8.95
san jose,ph,2020-03-14 21:57:34,12.35,121.07,89.73,45.0,1.0,10.76
emborion,gr,2020-03-14 21:57:34,40.48,21.55,53.01,65.0,100.0,10.29
vinhedo,br,2020-03-14 21:57:34,-23.03,-46.98,73.4,78.0,0.0,14.99
mwinilunga,zm,2020-03-14 21:57:34,-11.74,24.43,63.34,98.0,100.0,2.1
saint-augustin,ca,2020-03-14 21:57:34,51.23,-58.65,16.57,82.0,1.0,13.87
mandan,us,2020-03-14 21:57:34,46.83,-100.89,25.0,85.0,90.0,16.11
areosa,pt,2020-03-14 21:57:34,41.72,-8.86,51.01,93.0,0.0,3.36
richards bay,za,2020-03-14 21:57:18,-28.78,32.04,77.85,85.0,54.0,10.98
khorramshahr,ir,2020-03-14 21:57:34,30.44,48.17,64.4,88.0,90.0,6.93
mattru,sl,2020-03-14 21:57:34,7.62,-11.83,78.3,91.0,39.0,1.74
clifton,us,2020-03-14 21:57:35,40.86,-74.16,50.0,34.0,90.0,13.87
nova olimpia,br,2020-03-14 21:53:04,-14.8,-57.29,73.78,95.0,100.0,3.49
puerto madero,mx,2020-03-14 21:57:35,14.72,-92.42,82.4,74.0,40.0,2.24
tiznit,ma,2020-03-14 21:57:35,29.58,-9.5,50.61,92.0,97.0,1.57
cabanbanan,ph,2020-03-14 21:57:35,14.24,121.43,90.0,70.0,40.0,6.93
nabire,id,2020-03-14 21:57:35,-3.37,135.48,84.65,75.0,41.0,5.21
chapleau,ca,2020-03-14 21:57:35,47.84,-83.4,8.98,97.0,85.0,5.68
souillac,mu,2020-03-14 21:54:21,-20.52,57.52,75.99,94.0,40.0,7.81
broken hill,au,2020-03-14 21:57:35,-31.95,141.43,68.0,32.0,8.0,13.87
onalaska,us,2020-03-14 21:57:35,43.88,-91.24,32.0,74.0,90.0,8.05
najran,sa,2020-03-14 21:57:36,17.49,44.13,77.0,33.0,40.0,6.93
chokwe,mz,2020-03-14 21:57:36,-24.53,32.98,71.94,93.0,14.0,2.1
victoria,sc,2020-03-14 21:57:36,-4.62,55.45,78.8,88.0,20.0,2.24
punta alta,ar,2020-03-14 21:57:36,-38.88,-62.07,65.43,56.0,19.0,9.98
beringovskiy,ru,2020-03-14 21:57:36,63.05,179.32,22.42,91.0,85.0,8.55
mayumba,ga,2020-03-14 21:57:36,-3.43,10.66,82.92,80.0,100.0,2.46
muroto,jp,2020-03-14 21:57:36,33.28,134.15,53.6,46.0,75.0,13.87
dawson creek,ca,2020-03-14 21:57:36,55.77,-120.24,1.4,54.0,1.0,4.7
chongwe,zm,2020-03-14 21:57:36,-15.33,28.68,66.2,93.0,100.0,3.36
sinaloa,mx,2020-03-14 21:57:37,25.0,-107.5,77.0,47.0,40.0,8.05
rudnogorsk,ru,2020-03-14 21:57:37,57.26,103.75,31.62,94.0,100.0,7.96
sarandi,br,2020-03-14 21:57:37,-23.44,-51.87,82.4,42.0,0.0,9.17
christchurch,nz,2020-03-14 21:57:37,-43.53,172.63,64.99,68.0,100.0,21.92
havre-saint-pierre,ca,2020-03-14 21:57:37,50.23,-63.6,23.0,73.0,90.0,21.92
svetlyy,ru,2020-03-14 21:57:37,54.67,20.13,26.6,68.0,0.0,6.71
gori,ge,2020-03-14 21:57:37,41.98,44.12,43.43,87.0,69.0,10.22
udachnyy,ru,2020-03-14 21:57:37,66.42,112.4,21.2,79.0,53.0,6.71
kasane,bw,2020-03-14 21:57:37,-17.82,25.15,66.0,92.0,99.0,3.13
zhucheng,cn,2020-03-14 21:57:38,35.99,119.4,56.86,27.0,0.0,18.75
porto santo,pt,2020-03-14 21:57:38,33.07,-16.34,60.8,63.0,75.0,14.99
alcudia,es,2020-03-14 21:57:38,39.85,3.12,54.0,87.0,0.0,2.24
antsohihy,mg,2020-03-14 21:57:38,-14.88,47.99,73.4,98.0,98.0,1.86
xinzhi,cn,2020-03-14 21:57:38,36.5,111.7,48.74,20.0,32.0,1.34
poya,nc,2020-03-14 21:57:38,-21.35,165.15,84.76,77.0,100.0,29.42
bonavista,ca,2020-03-14 21:55:20,48.65,-53.11,33.01,81.0,46.0,17.0
vila do maio,cv,2020-03-14 21:57:38,15.13,-23.22,73.4,56.0,0.0,10.29
flagstaff,us,2020-03-14 21:57:39,35.2,-111.65,54.0,76.0,1.0,4.7
bosaso,so,2020-03-14 21:57:39,11.28,49.18,77.25,85.0,0.0,13.67
jinka,et,2020-03-14 21:57:39,5.65,36.65,75.63,57.0,100.0,3.27
erzin,ru,2020-03-14 21:57:39,50.26,95.16,13.84,74.0,99.0,3.04
jibuti,dj,2020-03-14 21:57:39,11.5,42.5,78.8,78.0,40.0,3.36
lavrentiya,ru,2020-03-14 21:54:42,65.58,-171.0,21.02,79.0,100.0,10.56
alice springs,au,2020-03-14 21:46:08,-23.7,133.88,82.4,28.0,90.0,5.82
kazuno,jp,2020-03-14 21:57:39,40.18,140.79,37.4,59.0,75.0,3.36
alice town,bs,2020-03-14 21:57:39,25.72,-79.3,75.31,81.0,30.0,14.81
kiboga,ug,2020-03-14 21:57:39,0.92,31.77,65.57,90.0,47.0,1.97
kota tinggi,my,2020-03-14 21:57:39,1.74,103.9,87.8,70.0,75.0,8.05
tivaouane,sn,2020-03-14 21:57:39,14.95,-16.81,69.8,88.0,40.0,8.05
mount isa,au,2020-03-14 21:46:13,-20.73,139.5,89.6,25.0,5.0,10.29
halifax,ca,2020-03-14 21:54:09,44.65,-63.57,34.0,69.0,40.0,19.46
cururupu,br,2020-03-14 21:49:45,-1.83,-44.87,74.64,97.0,47.0,1.12
sabha,ly,2020-03-14 21:50:20,27.04,14.43,60.37,20.0,0.0,6.33
kutum,sd,2020-03-14 21:57:40,14.2,24.67,53.11,30.0,100.0,3.91
baie-comeau,ca,2020-03-14 21:57:40,49.22,-68.15,23.0,57.0,75.0,16.11
nanyuki,ke,2020-03-14 21:57:40,0.02,37.07,57.42,77.0,100.0,2.06
alegrete,br,2020-03-14 21:50:12,-29.78,-55.79,77.74,61.0,100.0,9.37
varzea da palma,br,2020-03-14 21:57:40,-17.6,-44.73,67.17,93.0,28.0,7.49
porto velho,br,2020-03-14 21:56:01,-8.76,-63.9,80.6,88.0,40.0,3.36
simav,tr,2020-03-14 21:57:40,39.09,28.98,47.46,79.0,100.0,2.62
xuanzhou,cn,2020-03-14 21:57:40,30.95,118.76,63.28,35.0,0.0,12.97
ouesso,cg,2020-03-14 21:57:41,1.61,16.05,73.72,67.0,4.0,1.92
deputatskiy,ru,2020-03-14 21:57:41,69.3,139.9,-24.05,90.0,0.0,2.39
meulaboh,id,2020-03-14 21:57:41,4.14,96.13,82.58,75.0,50.0,4.61
lokosovo,ru,2020-03-14 21:57:41,61.13,74.82,32.13,94.0,100.0,13.62
bac lieu,vn,2020-03-14 21:54:17,9.29,105.72,87.51,55.0,100.0,17.45
taybad,ir,2020-03-14 21:57:41,34.74,60.78,61.07,21.0,96.0,18.32
sijunjung,id,2020-03-14 21:57:41,-0.69,100.95,81.54,76.0,56.0,2.08
vetluga,ru,2020-03-14 21:57:41,57.86,45.78,25.09,91.0,100.0,9.37
tabuk,sa,2020-03-14 21:57:42,28.38,36.58,53.6,81.0,40.0,4.59
dom pedrito,br,2020-03-14 21:57:42,-30.98,-54.67,75.67,67.0,100.0,7.63
san andres,co,2020-03-14 21:57:42,12.58,-81.7,80.6,78.0,20.0,9.17
barcelos,br,2020-03-14 21:57:42,-0.97,-62.92,75.29,95.0,52.0,3.67
tottori,jp,2020-03-14 21:57:42,35.5,134.23,51.8,50.0,40.0,12.75
plettenberg bay,za,2020-03-14 21:57:42,-34.05,23.37,65.88,83.0,98.0,6.49
half moon bay,us,2020-03-14 21:57:42,37.46,-122.43,52.0,87.0,90.0,8.05
yuancheng,cn,2020-03-14 21:57:42,36.65,107.79,44.82,15.0,75.0,4.12
great yarmouth,gb,2020-03-14 21:57:43,52.61,1.73,50.0,81.0,100.0,17.22
mikhaylovskoye,ru,2020-03-14 21:57:43,51.82,79.72,33.8,95.0,100.0,10.45
neuruppin,de,2020-03-14 21:57:43,52.93,12.8,37.0,59.0,0.0,9.17
svetlaya,ru,2020-03-14 21:57:43,46.54,138.33,25.12,76.0,100.0,19.69
prainha,br,2020-03-14 21:57:43,-1.8,-53.48,74.17,97.0,100.0,6.42
redwater,ca,2020-03-14 21:57:43,53.95,-113.1,1.99,77.0,90.0,1.66
raton,us,2020-03-14 21:56:40,36.9,-104.44,42.8,80.0,40.0,12.75
gouyave,gd,2020-03-14 21:57:43,12.16,-61.73,75.2,94.0,75.0,11.21
viedma,ar,2020-03-14 21:52:55,-40.81,-63.0,55.98,64.0,0.0,1.79
hay river,ca,2020-03-14 21:50:01,60.82,-115.8,15.8,40.0,75.0,9.17
les cayes,ht,2020-03-14 21:57:44,18.2,-73.75,79.88,72.0,0.0,10.25
hikari,jp,2020-03-14 21:57:44,33.95,131.95,54.0,45.0,75.0,13.87
ntungamo,ug,2020-03-14 21:57:44,-0.88,29.65,63.39,89.0,98.0,2.95
kaduqli,sd,2020-03-14 21:57:44,11.02,29.72,75.04,16.0,84.0,17.0
san policarpo,ph,2020-03-14 21:50:13,12.18,125.51,81.82,62.0,22.0,10.51
swan hill,au,2020-03-14 21:57:44,-35.34,143.55,72.0,43.0,0.0,1.99
turmalina,br,2020-03-14 21:57:44,-17.29,-42.73,64.9,98.0,44.0,3.8
haldia,in,2020-03-14 21:57:44,22.06,88.11,75.85,58.0,67.0,12.33
kamalpur,in,2020-03-14 21:57:44,24.2,91.83,73.4,73.0,40.0,3.36
vrangel,ru,2020-03-14 21:55:20,42.73,133.08,32.49,79.0,100.0,23.31
iracoubo,gf,2020-03-14 21:57:45,5.48,-53.2,79.61,77.0,96.0,15.52
boa vista,br,2020-03-14 21:55:09,2.82,-60.67,87.8,52.0,20.0,8.05
praia,cv,2020-03-14 21:45:05,14.92,-23.51,73.4,56.0,0.0,10.29
qaqortoq,gl,2020-03-14 21:57:45,60.72,-46.03,21.2,62.0,100.0,8.99
san carlos de bariloche,ar,2020-03-14 21:50:20,-41.15,-71.31,48.2,57.0,0.0,6.93
ziyang,cn,2020-03-14 21:57:45,29.25,117.85,58.96,48.0,0.0,5.14
yatou,cn,2020-03-14 21:57:45,37.15,122.38,43.9,50.0,62.0,20.98
camapua,br,2020-03-14 21:50:26,-19.53,-54.04,73.67,83.0,0.0,7.25
uvat,ru,2020-03-14 21:57:46,59.14,68.9,30.45,92.0,15.0,7.52
santa rosa,bo,2020-03-14 21:57:46,-14.17,-66.88,78.96,77.0,88.0,2.59
olinda,br,2020-03-14 21:57:46,-8.01,-34.86,80.6,78.0,40.0,4.7
waipawa,nz,2020-03-14 21:57:46,-41.41,175.52,66.0,72.0,0.0,10.29
beyneu,kz,2020-03-14 21:57:46,45.32,55.2,52.16,82.0,100.0,5.99
tokur,ru,2020-03-14 21:57:46,53.13,132.9,13.24,77.0,0.0,3.18
georgetown,sh,2020-03-14 21:57:46,-7.93,-14.42,79.79,73.0,100.0,15.66
marsa matruh,eg,2020-03-14 21:57:47,31.35,27.25,51.8,93.0,2.0,6.55
nevel,ru,2020-03-14 21:57:47,56.02,29.93,22.96,70.0,43.0,9.89
quatre cocos,mu,2020-03-14 21:57:47,-20.21,57.76,75.99,94.0,40.0,13.38
mammaste,ee,2020-03-14 21:57:47,58.07,27.05,25.0,73.0,0.0,6.93
kaniama,cd,2020-03-14 21:57:47,-7.57,24.18,64.99,97.0,85.0,2.39
dumai,id,2020-03-14 21:57:47,1.68,101.45,82.36,83.0,32.0,4.05
uige,ao,2020-03-14 21:57:47,-7.61,15.06,68.23,97.0,100.0,2.59
san ramon,bo,2020-03-14 21:57:48,-13.28,-64.72,80.89,72.0,100.0,1.19
dolores,ar,2020-03-14 21:55:20,-36.31,-57.68,55.27,81.0,65.0,2.39
manta,ec,2020-03-14 21:57:48,-0.95,-80.73,78.8,88.0,75.0,1.12
egvekinot,ru,2020-03-14 21:57:48,66.32,-179.17,9.75,61.0,93.0,2.08
tumwater,us,2020-03-14 21:57:48,47.01,-122.91,39.99,48.0,90.0,11.41
marrakesh,ma,2020-03-14 21:57:48,31.63,-8.01,55.4,76.0,40.0,8.05
bilma,ne,2020-03-14 21:48:40,18.69,12.92,58.6,22.0,14.0,2.53
kushima,jp,2020-03-14 21:50:18,31.46,131.23,57.2,46.0,75.0,25.28
salalah,om,2020-03-14 21:57:49,17.02,54.09,77.0,57.0,75.0,6.93
kundiawa,pg,2020-03-14 21:57:49,-6.02,144.97,59.16,96.0,100.0,1.83
qui nhon,vn,2020-03-14 21:55:49,13.77,109.23,84.74,57.0,100.0,6.67
geelong,au,2020-03-14 21:57:05,-38.15,144.36,66.99,77.0,90.0,14.99
pimentel,pe,2020-03-14 21:57:49,-6.84,-79.93,66.2,29.0,90.0,14.99
londoko,ru,2020-03-14 21:57:49,49.03,131.98,25.38,56.0,9.0,4.32
