City,Country,Date,Latitude,Longitude,Max Temperature (F),Humidity (%),Cloudiness (%),Wind Speed (mph)
ericeira,pt,2020-03-14 12:49:18,38.96,-9.42,71.6,63.0,0.0,12.75
souillac,mu,2020-03-14 12:51:56,-20.52,57.52,78.8,83.0,40.0,3.36
bengkulu,id,2020-03-14 12:51:56,-3.8,102.27,75.18,90.0,100.0,3.8
liverpool,ca,2020-03-14 12:50:48,44.03,-64.72,46.99,51.0,25.0,13.0
ileza,ru,2020-03-14 12:51:57,61.05,43.9,13.62,88.0,72.0,5.14
busselton,au,2020-03-14 12:51:51,-33.65,115.33,66.99,98.0,83.0,13.27
port lincoln,au,2020-03-14 12:51:57,-34.73,135.87,59.16,78.0,56.0,15.66
chokurdakh,ru,2020-03-14 12:51:57,70.63,147.92,-28.14,98.0,69.0,4.25
flinders,au,2020-03-14 12:51:57,-34.58,150.86,61.0,58.0,88.0,11.41
saint-francois,gp,2020-03-14 12:51:57,16.25,-61.27,77.0,78.0,12.0,3.36
erie,us,2020-03-14 12:50:41,42.77,-78.67,39.0,64.0,1.0,4.7
campbell river,ca,2020-03-14 12:51:57,50.02,-125.24,35.6,38.0,20.0,17.22
yellowknife,ca,2020-03-14 12:51:58,62.46,-114.35,0.0,64.0,90.0,12.75
chuy,uy,2020-03-14 12:51:58,-33.7,-53.46,91.38,42.0,1.0,5.35
dubbo,au,2020-03-14 12:51:58,-32.25,148.62,55.4,76.0,5.0,14.99
mount gambier,au,2020-03-14 12:51:58,-37.83,140.77,53.6,81.0,90.0,8.05
castro,cl,2020-03-14 12:51:58,-42.47,-73.77,60.8,55.0,40.0,4.7
punta arenas,cl,2020-03-14 12:50:13,-53.15,-70.92,57.2,67.0,75.0,27.51
yulara,au,2020-03-14 12:51:58,-25.24,130.99,80.6,30.0,0.0,12.75
coquimbo,cl,2020-03-14 12:51:58,-29.95,-71.34,69.8,68.0,40.0,10.29
hermanus,za,2020-03-14 12:51:58,-34.42,19.23,64.99,85.0,26.0,1.99
husavik,is,2020-03-14 12:51:59,66.04,-17.34,24.8,68.0,75.0,8.05
kavaratti,in,2020-03-14 12:51:59,10.57,72.64,82.38,71.0,18.0,9.6
ushuaia,ar,2020-03-14 12:51:59,-54.8,-68.3,53.6,58.0,40.0,11.41
iqaluit,ca,2020-03-14 12:51:59,63.75,-68.51,-18.0,61.0,5.0,17.22
ozinki,ru,2020-03-14 12:51:59,51.18,49.68,37.56,92.0,100.0,11.1
manadhoo,mv,2020-03-14 12:52:00,5.77,73.38,84.36,74.0,41.0,8.7
ponta do sol,cv,2020-03-14 12:52:00,17.2,-25.09,78.8,57.0,40.0,21.92
vaini,to,2020-03-14 12:52:00,-21.2,-175.2,77.0,100.0,75.0,8.05
rafai,cf,2020-03-14 12:52:00,4.95,23.92,86.16,39.0,100.0,1.79
marti,cu,2020-03-14 12:52:00,22.95,-80.92,84.2,58.0,40.0,12.75
cidreira,br,2020-03-14 12:52:00,-30.18,-50.21,76.44,79.0,0.0,12.64
omura,jp,2020-03-14 12:52:00,32.92,129.95,46.99,50.0,15.0,3.0
barrow,us,2020-03-14 12:52:00,71.29,-156.79,21.2,85.0,90.0,31.09
kruisfontein,za,2020-03-14 12:52:00,-34.0,24.73,64.02,89.0,17.0,9.64
cap malheureux,mu,2020-03-14 12:52:01,-19.98,57.61,78.8,83.0,40.0,3.36
kindu,cd,2020-03-14 12:52:01,-2.95,25.95,75.54,79.0,100.0,1.41
okhotsk,ru,2020-03-14 12:52:01,59.38,143.3,3.36,86.0,100.0,8.72
hobart,au,2020-03-14 12:52:01,-42.88,147.33,53.6,76.0,75.0,5.82
cockburn town,tc,2020-03-14 12:52:01,21.46,-71.14,76.62,77.0,12.0,19.55
hamadan,ir,2020-03-14 12:48:04,34.8,48.51,45.66,68.0,57.0,9.78
jamestown,sh,2020-03-14 12:52:02,-15.94,-5.72,77.16,69.0,9.0,13.02
atuona,pf,2020-03-14 12:52:02,-9.8,-139.03,81.66,73.0,2.0,11.21
taksimo,ru,2020-03-14 12:52:02,56.34,114.88,0.12,92.0,43.0,0.81
lebu,cl,2020-03-14 12:52:02,-37.62,-73.65,66.54,42.0,0.0,12.88
salalah,om,2020-03-14 12:52:02,17.02,54.09,77.0,61.0,40.0,5.82
avarua,ck,2020-03-14 12:52:02,-21.21,-159.78,75.2,100.0,82.0,2.24
fortuna,us,2020-03-14 12:52:02,40.6,-124.16,46.99,87.0,75.0,10.29
sur,om,2020-03-14 12:52:02,22.57,59.53,70.68,36.0,95.0,5.97
kumla,se,2020-03-14 12:52:02,59.13,15.14,34.0,47.0,12.0,6.93
clyde river,ca,2020-03-14 12:52:03,70.47,-68.59,-16.6,62.0,5.0,3.36
christchurch,nz,2020-03-14 12:52:03,-43.53,172.63,57.2,87.0,22.0,3.36
namatanai,pg,2020-03-14 12:52:03,-3.67,152.43,82.2,75.0,100.0,6.26
bubaque,gw,2020-03-14 12:52:03,11.28,-15.83,83.46,59.0,37.0,18.54
rikitea,pf,2020-03-14 12:52:03,-23.12,-134.97,77.52,78.0,65.0,14.07
matara,lk,2020-03-14 12:52:03,5.95,80.54,74.82,83.0,0.0,5.73
arraial do cabo,br,2020-03-14 12:52:03,-22.97,-42.03,84.2,74.0,20.0,9.17
takoradi,gh,2020-03-14 12:52:03,4.88,-1.76,82.74,77.0,87.0,6.73
sorong,id,2020-03-14 12:52:04,-0.88,131.25,72.84,98.0,100.0,2.28
pevek,ru,2020-03-14 12:52:04,69.7,170.31,-16.26,89.0,30.0,9.75
tasiilaq,gl,2020-03-14 12:52:04,65.61,-37.64,8.6,65.0,20.0,4.7
sterling,us,2020-03-14 12:48:47,39.01,-77.43,57.99,34.0,1.0,5.82
lagoa,pt,2020-03-14 12:52:04,39.05,-27.98,60.24,77.0,100.0,10.51
albany,au,2020-03-14 12:52:04,-35.02,117.89,64.4,100.0,75.0,5.82
longyearbyen,sj,2020-03-14 12:52:04,78.22,15.64,-0.4,54.0,40.0,17.22
poum,nc,2020-03-14 12:52:04,-20.23,164.02,83.28,82.0,88.0,30.67
tiksi,ru,2020-03-14 12:52:04,71.69,128.87,-15.0,79.0,0.0,8.84
general pico,ar,2020-03-14 12:47:52,-35.66,-63.76,71.4,30.0,88.0,10.54
shenjiamen,cn,2020-03-14 12:52:05,29.96,122.3,51.06,76.0,0.0,14.23
mehamn,no,2020-03-14 12:52:05,71.04,27.85,14.34,80.0,98.0,15.01
san jose,gt,2020-03-14 12:52:05,16.98,-89.9,88.86,45.0,1.0,5.84
faanui,pf,2020-03-14 12:52:05,-16.48,-151.75,82.74,78.0,11.0,16.46
porto novo,cv,2020-03-14 12:52:05,17.02,-25.06,78.8,57.0,40.0,21.92
college,us,2020-03-14 12:48:49,64.86,-147.8,17.01,84.0,90.0,4.7
del rio,us,2020-03-14 12:52:05,29.36,-100.9,75.2,73.0,90.0,10.29
tinskoy,ru,2020-03-14 12:52:06,56.15,96.92,31.62,88.0,100.0,7.2
bluff,nz,2020-03-14 12:52:06,-46.6,168.33,52.0,83.0,95.0,1.99
burgeo,ca,2020-03-14 12:52:07,47.62,-57.62,32.34,86.0,46.0,22.46
sitka,us,2020-03-14 12:52:07,57.05,-135.33,30.2,80.0,1.0,4.7
hilo,us,2020-03-14 12:52:07,19.73,-155.09,70.0,83.0,90.0,3.36
eyl,so,2020-03-14 12:52:07,7.98,49.82,79.68,83.0,2.0,19.57
butaritari,ki,2020-03-14 12:52:05,3.07,172.79,83.28,70.0,100.0,7.92
chara,ru,2020-03-14 12:52:07,56.91,118.26,-7.44,77.0,55.0,1.45
port keats,au,2020-03-14 12:52:07,-14.25,129.55,79.68,79.0,43.0,4.74
ryotsu,jp,2020-03-14 12:52:07,38.08,138.43,30.2,92.0,20.0,2.24
jining,cn,2020-03-14 12:52:08,35.41,116.58,45.48,27.0,0.0,4.88
iberia,pe,2020-03-14 12:52:08,-11.35,-69.58,99.3,34.0,82.0,2.26
lorengau,pg,2020-03-14 12:52:08,-2.02,147.27,84.18,77.0,82.0,13.27
klaksvik,fo,2020-03-14 12:52:08,62.23,-6.59,39.2,69.0,100.0,9.17
hualmay,pe,2020-03-14 12:52:08,-11.1,-77.61,81.48,56.0,76.0,11.16
nikolskoye,ru,2020-03-14 12:52:08,59.7,30.79,28.4,50.0,75.0,24.61
bintulu,my,2020-03-14 12:52:08,3.17,113.03,77.0,100.0,75.0,3.36
caravelas,br,2020-03-14 12:52:08,-17.71,-39.25,80.76,76.0,19.0,10.2
srednyaya yelyuzan,ru,2020-03-14 12:52:08,53.02,45.95,37.0,70.0,99.0,9.46
kapaa,us,2020-03-14 12:52:09,22.08,-159.32,64.4,82.0,1.0,8.05
carnarvon,au,2020-03-14 12:52:09,-24.87,113.63,77.0,83.0,75.0,9.17
sukumo,jp,2020-03-14 12:52:09,32.93,132.73,46.02,54.0,11.0,18.5
ust-tsilma,ru,2020-03-14 12:52:09,65.44,52.15,14.7,93.0,100.0,8.46
quatre cocos,mu,2020-03-14 12:52:09,-20.21,57.76,78.8,83.0,40.0,3.36
ust-ishim,ru,2020-03-14 12:52:09,57.69,71.17,35.58,84.0,98.0,11.99
victoria,sc,2020-03-14 12:47:37,-4.62,55.45,84.2,74.0,40.0,8.05
udankudi,in,2020-03-14 12:52:09,8.43,78.02,80.22,79.0,0.0,7.02
hengshan,cn,2020-03-14 12:52:10,45.2,130.92,16.32,94.0,100.0,1.54
nawa,sy,2020-03-14 12:52:10,32.89,36.04,52.5,89.0,5.0,6.62
ahipara,nz,2020-03-14 12:52:10,-35.17,173.17,63.12,75.0,0.0,7.58
thompson,ca,2020-03-14 12:49:57,55.74,-97.86,-4.0,53.0,20.0,3.36
aykhal,ru,2020-03-14 12:52:10,66.0,111.5,14.0,85.0,73.0,6.71
sao filipe,cv,2020-03-14 12:52:10,14.9,-24.5,76.08,55.0,100.0,14.27
cape town,za,2020-03-14 12:51:11,-33.93,18.42,72.0,68.0,40.0,14.99
wuwei,cn,2020-03-14 12:52:10,37.93,102.64,32.7,34.0,91.0,3.91
lensk,ru,2020-03-14 12:52:11,60.73,114.93,16.68,92.0,100.0,12.82
bredasdorp,za,2020-03-14 12:52:11,-34.53,20.04,69.8,60.0,13.0,11.41
buraydah,sa,2020-03-14 12:52:11,26.33,43.98,71.6,43.0,8.0,2.24
tuktoyaktuk,ca,2020-03-14 12:52:11,69.45,-133.04,23.0,79.0,75.0,32.21
norman wells,ca,2020-03-14 12:47:15,65.28,-126.83,5.0,84.0,75.0,2.24
puerto ayora,ec,2020-03-14 12:52:11,-0.74,-90.35,82.99,74.0,40.0,9.17
aksha,ru,2020-03-14 12:52:11,50.28,113.29,13.44,92.0,93.0,1.97
ribeira grande,pt,2020-03-14 12:52:11,38.52,-28.7,64.4,68.0,40.0,14.99
kemijarvi,fi,2020-03-14 12:52:12,66.71,27.43,6.24,84.0,20.0,2.28
hanmer springs,nz,2020-03-14 12:52:12,-42.52,172.82,50.34,80.0,0.0,2.1
teya,ru,2020-03-14 12:52:12,60.38,92.63,28.2,88.0,100.0,13.8
fort nelson,ca,2020-03-14 12:52:12,58.81,-122.7,-2.2,58.0,20.0,5.82
qaanaaq,gl,2020-03-14 12:52:12,77.48,-69.36,-19.14,60.0,0.0,4.81
sokolo,ml,2020-03-14 12:52:12,14.73,-6.12,96.24,6.0,0.0,4.79
kristiinankaupunki,fi,2020-03-14 12:52:12,62.27,21.38,26.58,63.0,21.0,3.94
bambous virieux,mu,2020-03-14 12:52:12,-20.34,57.76,78.8,83.0,40.0,3.36
bonavista,ca,2020-03-14 12:51:40,48.65,-53.11,39.0,84.0,92.0,21.0
xichang,cn,2020-03-14 12:52:13,27.9,102.26,37.74,90.0,33.0,4.88
kaya,bf,2020-03-14 12:52:13,13.09,-1.08,93.9,12.0,0.0,6.76
osinovo,ru,2020-03-14 12:52:13,55.88,48.88,32.0,92.0,68.0,6.71
inuvik,ca,2020-03-14 12:52:13,68.35,-133.72,23.0,57.0,90.0,3.36
east london,za,2020-03-14 12:52:13,-33.02,27.91,69.8,88.0,20.0,6.93
suslovo,ru,2020-03-14 12:52:13,56.22,88.12,32.52,81.0,81.0,20.27
kodiak,us,2020-03-14 12:52:13,57.79,-152.41,17.6,78.0,1.0,6.93
florence,us,2020-03-14 12:52:13,34.05,-79.67,69.8,28.0,90.0,5.61
severodvinsk,ru,2020-03-14 12:52:14,64.56,39.83,23.0,85.0,75.0,6.71
lourdes,fr,2020-03-14 12:48:58,43.1,-0.05,55.4,62.0,90.0,2.24
ntungamo,ug,2020-03-14 12:52:14,-0.88,29.65,67.98,83.0,68.0,3.62
namibe,ao,2020-03-14 12:52:14,-15.2,12.15,76.44,75.0,85.0,7.67
mar del plata,ar,2020-03-14 12:52:14,-38.0,-57.56,72.0,53.0,100.0,9.17
narsaq,gl,2020-03-14 12:52:14,60.92,-46.05,24.8,62.0,75.0,4.7
nha trang,vn,2020-03-14 12:52:14,12.25,109.18,78.8,88.0,20.0,2.24
puerto leguizamo,co,2020-03-14 12:52:14,-0.19,-74.78,73.38,98.0,100.0,6.13
manitowoc,us,2020-03-14 12:52:14,44.07,-87.8,33.01,58.0,90.0,11.41
puerto baquerizo moreno,ec,2020-03-14 12:52:14,-0.9,-89.6,84.2,79.0,75.0,4.7
kinablangan,ph,2020-03-14 12:52:15,7.69,126.55,68.16,86.0,11.0,5.59
mahebourg,mu,2020-03-14 12:52:15,-20.41,57.7,78.8,83.0,40.0,3.36
port alfred,za,2020-03-14 12:52:15,-33.59,26.89,68.0,89.0,25.0,3.0
torbay,ca,2020-03-14 12:48:03,47.67,-52.73,42.01,86.0,40.0,25.28
chabahar,ir,2020-03-14 12:52:15,25.29,60.64,72.48,49.0,100.0,3.29
puerto escondido,mx,2020-03-14 12:52:15,15.85,-97.07,82.4,65.0,5.0,9.17
araioses,br,2020-03-14 12:52:16,-2.89,-41.9,86.0,74.0,75.0,13.87
saint-augustin,ca,2020-03-14 12:52:16,51.23,-58.65,31.44,76.0,97.0,27.13
collie,au,2020-03-14 12:52:16,-33.37,116.15,66.99,98.0,100.0,5.17
guerrero negro,mx,2020-03-14 12:52:16,27.98,-114.06,65.28,61.0,0.0,7.31
bairiki,ki,2020-03-14 12:52:16,1.33,172.98,82.4,78.0,20.0,6.93
bowen,au,2020-03-14 12:52:16,-20.02,148.23,70.0,88.0,57.0,2.24
san quintin,mx,2020-03-14 12:52:16,30.48,-115.95,62.04,69.0,5.0,9.55
irbeyskoye,ru,2020-03-14 12:52:16,55.64,95.45,31.44,89.0,100.0,5.14
cochrane,ca,2020-03-14 12:52:14,51.18,-114.47,-0.99,70.0,90.0,12.75
naze,jp,2020-03-14 12:52:17,28.37,129.48,59.0,54.0,75.0,21.92
new norfolk,au,2020-03-14 12:52:17,-42.78,147.06,53.6,76.0,75.0,5.82
rjukan,no,2020-03-14 12:52:17,59.88,8.59,11.82,96.0,65.0,6.71
saskylakh,ru,2020-03-14 12:52:17,71.92,114.08,1.56,94.0,100.0,15.68
bafra,tr,2020-03-14 12:52:17,41.57,35.91,50.0,81.0,75.0,5.82
telimele,gn,2020-03-14 12:52:17,10.92,-13.33,100.38,8.0,14.0,0.43
palauig,ph,2020-03-14 12:52:17,15.44,119.9,73.02,80.0,86.0,5.93
fukue,jp,2020-03-14 12:52:17,32.69,128.84,50.0,53.0,75.0,14.99
srednekolymsk,ru,2020-03-14 12:52:17,67.45,153.68,-19.5,90.0,35.0,10.22
alta floresta,br,2020-03-14 12:52:17,-9.88,-56.09,80.76,81.0,100.0,6.46
broome,au,2020-03-14 12:48:41,-17.97,122.23,86.0,79.0,22.0,6.93
beringovskiy,ru,2020-03-14 12:52:18,63.05,179.32,12.0,76.0,0.0,6.82
shimoda,jp,2020-03-14 12:52:18,34.67,138.95,42.01,94.0,84.0,4.09
khanu woralaksaburi,th,2020-03-14 12:52:18,16.06,99.86,87.06,56.0,26.0,8.66
port blair,in,2020-03-14 12:52:18,11.67,92.75,82.56,68.0,15.0,6.46
deputatskiy,ru,2020-03-14 12:52:18,69.3,139.9,-34.26,97.0,0.0,1.07
saint-philippe,re,2020-03-14 12:52:18,-21.36,55.77,78.8,83.0,20.0,16.11
palmer,us,2020-03-14 12:52:18,42.16,-72.33,51.01,39.0,40.0,21.92
khuzhir,ru,2020-03-14 12:52:18,53.19,107.34,24.06,90.0,0.0,8.08
namtsy,ru,2020-03-14 12:52:19,62.72,129.67,-22.0,74.0,54.0,2.24
alofi,nu,2020-03-14 12:52:19,-19.06,-169.92,77.0,94.0,100.0,4.7
lingao,cn,2020-03-14 12:52:19,19.91,109.69,70.86,85.0,92.0,13.18
port elizabeth,za,2020-03-14 12:52:19,-33.92,25.57,66.2,88.0,20.0,13.87
alice springs,au,2020-03-14 12:47:38,-23.7,133.88,75.2,41.0,0.0,11.41
provideniya,ru,2020-03-14 12:52:19,64.38,-173.3,17.58,58.0,100.0,7.72
severo-kurilsk,ru,2020-03-14 12:52:19,50.68,156.12,9.84,81.0,46.0,3.62
turkistan,kz,2020-03-14 12:52:19,43.0,68.0,53.4,37.0,0.0,6.33
nelson bay,au,2020-03-14 12:52:19,-32.72,152.15,66.2,68.0,90.0,17.22
katherine,au,2020-03-14 12:52:19,-14.47,132.27,75.2,53.0,40.0,4.7
bethel,us,2020-03-14 12:51:31,41.37,-73.41,54.0,39.0,75.0,14.99
ketchikan,us,2020-03-14 12:52:20,55.34,-131.65,32.0,50.0,1.0,5.82
betioky,mg,2020-03-14 12:52:20,-23.72,44.38,76.8,67.0,68.0,3.6
kudahuvadhoo,mv,2020-03-14 12:52:20,2.67,72.89,84.54,66.0,76.0,6.38
darnah,ly,2020-03-14 12:52:20,32.77,22.64,62.4,80.0,99.0,19.82
samarai,pg,2020-03-14 12:52:20,-10.62,150.67,76.44,88.0,100.0,5.5
wanning,cn,2020-03-14 12:52:20,18.8,110.4,72.12,94.0,98.0,5.66
rio grande,br,2020-03-14 12:47:26,-32.03,-52.1,96.8,53.0,20.0,10.29
vila franca do campo,pt,2020-03-14 12:52:20,37.72,-25.43,62.6,67.0,20.0,16.11
yeppoon,au,2020-03-14 12:52:20,-23.13,150.73,71.6,73.0,75.0,8.05
novosil,ru,2020-03-14 12:52:21,52.97,37.04,35.4,93.0,66.0,14.63
esperance,au,2020-03-14 12:52:21,-33.87,121.9,64.4,93.0,40.0,13.87
vostok,ru,2020-03-14 12:52:21,46.49,135.88,9.12,96.0,94.0,2.35
talnakh,ru,2020-03-14 12:52:21,69.49,88.4,32.0,95.0,75.0,26.84
pareora,nz,2020-03-14 12:52:21,-44.49,171.21,46.56,95.0,38.0,3.31
olafsvik,is,2020-03-14 12:50:00,64.89,-23.71,26.76,60.0,20.0,9.33
garh maharaja,pk,2020-03-14 12:52:21,30.83,71.91,59.7,60.0,0.0,2.21
acapulco,mx,2020-03-14 12:52:21,16.86,-99.89,86.0,62.0,40.0,5.82
nome,us,2020-03-14 12:52:22,64.5,-165.41,32.0,98.0,90.0,0.72
katsuura,jp,2020-03-14 12:52:22,35.13,140.3,39.99,93.0,75.0,5.82
benguela,ao,2020-03-14 12:52:22,-12.58,13.41,80.22,76.0,66.0,1.9
assiniboia,ca,2020-03-14 12:50:40,49.63,-105.98,16.14,71.0,100.0,19.77
antofagasta,cl,2020-03-14 12:52:22,-23.65,-70.4,72.0,68.0,20.0,17.22
wajir,ke,2020-03-14 12:52:22,1.75,40.06,94.98,33.0,100.0,12.39
zharkent,kz,2020-03-14 12:52:22,44.16,80.0,48.72,35.0,49.0,6.55
felipe carrillo puerto,mx,2020-03-14 12:52:22,19.58,-88.05,89.58,43.0,24.0,8.43
taree,au,2020-03-14 12:52:23,-31.9,152.47,61.0,93.0,100.0,8.05
ouro preto do oeste,br,2020-03-14 12:52:23,-10.75,-62.22,86.52,75.0,90.0,2.42
zheleznodorozhnyy,ru,2020-03-14 12:52:23,55.75,38.0,42.8,52.0,87.0,6.71
burnie,au,2020-03-14 12:52:23,-41.07,145.92,52.0,79.0,0.0,8.01
mana,gf,2020-03-14 12:52:23,5.66,-53.78,87.96,53.0,59.0,7.23
kavieng,pg,2020-03-14 12:52:23,-2.57,150.8,84.0,73.0,100.0,11.25
helong,cn,2020-03-14 12:52:23,42.54,129.0,18.48,93.0,91.0,5.37
pangnirtung,ca,2020-03-14 12:52:24,66.15,-65.71,-22.0,61.0,5.0,2.24
hithadhoo,mv,2020-03-14 12:52:24,-0.6,73.08,83.46,61.0,21.0,2.59
egvekinot,ru,2020-03-14 12:52:24,66.32,-179.17,-4.38,64.0,0.0,2.46
vetluga,ru,2020-03-14 12:52:24,57.86,45.78,31.26,87.0,83.0,4.03
orel,ru,2020-03-14 12:52:24,52.97,36.08,37.02,77.0,96.0,11.97
el banco,co,2020-03-14 12:51:02,9.0,-73.98,103.8,30.0,6.0,2.48
hobyo,so,2020-03-14 12:52:24,5.35,48.53,80.94,75.0,43.0,17.56
carutapera,br,2020-03-14 12:52:24,-1.2,-46.02,81.12,80.0,100.0,10.69
lompoc,us,2020-03-14 12:52:25,34.64,-120.46,57.99,82.0,90.0,11.41
turukhansk,ru,2020-03-14 12:52:25,65.82,87.98,30.36,96.0,100.0,15.26
dikson,ru,2020-03-14 12:52:25,73.51,80.55,-12.66,98.0,73.0,12.44
broken hill,au,2020-03-14 12:52:25,-31.95,141.43,57.2,44.0,0.0,14.99
bourail,nc,2020-03-14 12:52:25,-21.57,165.48,74.82,92.0,99.0,6.31
gamboula,cf,2020-03-14 12:52:25,4.12,15.14,81.84,23.0,66.0,2.68
mayo,ca,2020-03-14 12:52:25,63.59,-135.9,-18.4,75.0,90.0,3.33
pampa,us,2020-03-14 12:52:25,35.54,-100.96,46.4,93.0,90.0,6.67
guerrero,mx,2020-03-14 12:52:26,17.67,-100.0,80.94,37.0,18.0,3.58
luderitz,na,2020-03-14 12:52:26,-26.65,15.16,71.6,68.0,0.0,20.8
ballina,au,2020-03-14 12:52:26,-28.87,153.57,64.4,88.0,90.0,13.87
srivardhan,in,2020-03-14 12:52:26,18.03,73.02,71.94,58.0,0.0,5.75
tual,id,2020-03-14 12:52:26,-5.67,132.75,81.48,78.0,100.0,12.53
tilichiki,ru,2020-03-14 12:52:26,60.47,166.1,26.94,83.0,95.0,17.09
coahuayana,mx,2020-03-14 12:52:26,18.73,-103.68,80.6,74.0,75.0,6.91
petropavlovsk-kamchatskiy,ru,2020-03-14 12:52:26,53.05,158.65,17.6,61.0,20.0,8.95
alyangula,au,2020-03-14 12:52:26,-13.85,136.42,77.0,100.0,75.0,4.14
hosanagara,in,2020-03-14 12:52:27,13.92,75.07,71.58,53.0,1.0,2.68
merrill,us,2020-03-14 12:52:27,45.18,-89.68,27.0,63.0,90.0,3.47
alexandria,us,2020-03-14 12:52:27,38.8,-77.05,57.99,18.0,1.0,8.05
poso,id,2020-03-14 12:52:27,-1.4,120.75,67.26,93.0,100.0,0.89
tabou,ci,2020-03-14 12:52:27,4.42,-7.35,80.58,90.0,52.0,4.34
uruzgan,af,2020-03-14 12:52:27,32.83,66.0,45.12,39.0,49.0,2.39
gusau,ng,2020-03-14 12:52:27,12.16,6.66,81.66,10.0,86.0,8.66
yuncheng,cn,2020-03-14 12:52:27,35.02,110.99,44.22,22.0,44.0,5.64
mizdah,ly,2020-03-14 12:52:27,31.45,12.98,67.44,20.0,0.0,3.04
subiaco,it,2020-03-14 12:52:27,41.93,13.09,60.01,87.0,75.0,3.36
loding,no,2020-03-14 12:52:28,67.3,14.75,35.6,69.0,75.0,25.28
riyadh,sa,2020-03-14 12:50:20,24.69,46.72,77.0,33.0,60.0,3.36
te anau,nz,2020-03-14 12:52:28,-45.42,167.72,49.26,72.0,100.0,0.81
adre,td,2020-03-14 12:52:28,13.47,22.2,70.5,16.0,30.0,3.0
porbandar,in,2020-03-14 12:52:28,21.64,69.61,76.44,50.0,84.0,14.41
kahului,us,2020-03-14 12:52:28,20.89,-156.47,71.6,88.0,75.0,4.7
florian,co,2020-03-14 12:52:28,5.8,-73.97,74.28,80.0,80.0,3.4
tuatapere,nz,2020-03-14 12:52:28,-46.13,167.68,52.0,83.0,100.0,1.99
san jeronimo,mx,2020-03-14 12:52:28,29.37,-110.79,70.0,52.0,5.0,5.41
aklavik,ca,2020-03-14 12:52:28,68.22,-135.01,23.0,78.0,90.0,4.7
geraldton,au,2020-03-14 12:52:29,-28.77,114.6,73.4,83.0,90.0,8.05
flin flon,ca,2020-03-14 12:52:29,54.77,-101.86,-0.4,64.0,75.0,2.24
presidencia roque saenz pena,ar,2020-03-14 12:52:29,-26.79,-60.44,102.9,22.0,65.0,5.84
isangel,vu,2020-03-14 12:52:29,-19.55,169.27,82.38,83.0,100.0,14.76
staden,be,2020-03-14 12:52:29,50.95,3.02,48.99,93.0,93.0,11.41
luangwa,zm,2020-03-14 12:52:29,-15.62,30.42,75.36,76.0,75.0,1.88
lavrentiya,ru,2020-03-14 12:52:29,65.58,-171.0,15.96,56.0,100.0,4.74
solnechnyy,ru,2020-03-14 12:52:29,50.72,136.63,3.18,87.0,65.0,6.6
concarneau,fr,2020-03-14 12:52:29,47.88,-3.92,52.0,87.0,90.0,8.05
de-kastri,ru,2020-03-14 12:52:29,51.47,140.78,14.88,89.0,100.0,8.41
san antonio,cl,2020-03-14 12:52:29,-33.59,-71.62,78.8,68.0,0.0,14.99
dubovskoye,ru,2020-03-14 12:52:30,47.41,42.76,42.42,73.0,34.0,8.97
linxia,cn,2020-03-14 12:52:30,35.6,103.21,34.5,35.0,61.0,1.63
margate,za,2020-03-14 12:52:30,-30.86,30.37,78.6,81.0,22.0,12.24
constitucion,mx,2020-03-14 12:52:30,23.99,-104.67,73.0,32.0,40.0,1.86
jaru,br,2020-03-14 12:51:45,-10.44,-62.47,84.54,85.0,100.0,3.98
motygino,ru,2020-03-14 12:52:30,58.18,94.76,30.18,93.0,96.0,7.72
atherton,au,2020-03-14 12:52:30,-17.27,145.48,71.6,88.0,40.0,2.24
zhigalovo,ru,2020-03-14 12:52:30,54.81,105.16,23.16,95.0,90.0,1.9
byron bay,au,2020-03-14 12:52:30,-28.65,153.62,68.0,88.0,90.0,13.87
ilulissat,gl,2020-03-14 12:52:31,69.22,-51.1,3.2,77.0,90.0,11.41
shingu,jp,2020-03-14 12:52:31,33.73,135.98,45.66,68.0,17.0,12.3
touros,br,2020-03-14 12:52:31,-5.2,-35.46,86.0,66.0,40.0,11.41
upernavik,gl,2020-03-14 12:52:31,72.79,-56.15,-8.16,93.0,100.0,4.59
la ronge,ca,2020-03-14 12:52:31,55.1,-105.28,-4.0,64.0,75.0,2.24
khatanga,ru,2020-03-14 12:52:31,71.97,102.5,27.48,96.0,84.0,15.95
khakhea,bw,2020-03-14 12:52:31,-24.69,23.49,81.48,31.0,58.0,6.26
nobres,br,2020-03-14 12:52:31,-14.72,-56.33,86.34,69.0,70.0,3.44
rumphi,mw,2020-03-14 12:52:31,-11.02,33.86,64.2,94.0,100.0,3.0
belaya gora,ru,2020-03-14 12:52:32,68.53,146.42,-27.96,88.0,40.0,2.3
ornskoldsvik,se,2020-03-14 12:52:32,63.29,18.72,26.6,45.0,80.0,4.7
kununurra,au,2020-03-14 12:52:32,-15.77,128.73,77.0,94.0,0.0,4.7
horasan,tr,2020-03-14 12:52:32,40.05,42.17,39.0,78.0,68.0,5.3
kichera,ru,2020-03-14 12:52:32,55.94,110.1,12.54,95.0,100.0,1.34
san felipe,ph,2020-03-14 12:52:32,15.5,120.91,77.0,88.0,75.0,2.24
yhu,py,2020-03-14 12:52:32,-25.05,-55.92,101.46,21.0,2.0,6.26
evensk,ru,2020-03-14 12:52:32,61.95,159.23,13.62,95.0,100.0,6.26
yerbogachen,ru,2020-03-14 12:52:33,61.28,108.01,30.36,92.0,100.0,10.65
guia de isora,es,2020-03-14 12:52:33,28.21,-16.78,69.01,67.0,75.0,16.11
georgetown,sh,2020-03-14 12:52:33,-7.93,-14.42,80.04,74.0,58.0,13.94
lodja,cd,2020-03-14 12:52:33,-3.48,23.43,76.8,72.0,2.0,1.83
meadow lake,ca,2020-03-14 12:52:33,54.13,-108.43,-4.0,64.0,90.0,5.82
ulaangom,mn,2020-03-14 12:52:33,49.98,92.07,-1.86,97.0,62.0,1.54
lafia,ng,2020-03-14 12:52:33,8.48,8.52,92.1,11.0,42.0,3.47
arman,ru,2020-03-14 12:52:33,59.7,150.17,6.6,92.0,100.0,6.69
kitgum,ug,2020-03-14 12:52:33,3.28,32.89,78.96,59.0,100.0,1.95
azare,ng,2020-03-14 12:52:34,11.68,10.19,77.16,14.0,8.0,7.87
skibbereen,ie,2020-03-14 12:52:34,51.55,-9.27,50.0,93.0,90.0,29.97
sorland,no,2020-03-14 12:52:34,67.67,12.69,38.64,91.0,100.0,53.73
upington,za,2020-03-14 12:52:34,-28.45,21.26,86.0,19.0,0.0,8.05
teahupoo,pf,2020-03-14 12:52:34,-17.83,-149.27,84.2,74.0,20.0,14.27
ayan,ru,2020-03-14 12:52:34,56.45,138.17,-4.74,69.0,0.0,11.97
bozeman,us,2020-03-14 12:50:41,45.68,-111.04,27.0,85.0,90.0,9.17
axim,gh,2020-03-14 12:52:34,4.87,-2.24,82.74,77.0,87.0,6.73
olean,us,2020-03-14 12:52:34,42.08,-78.43,44.01,64.0,1.0,4.7
portland,au,2020-03-14 12:52:35,-38.33,141.6,57.9,71.0,3.0,14.34
lazurne,ua,2020-03-14 12:52:35,46.08,32.53,46.99,52.0,76.0,6.71
tautira,pf,2020-03-14 12:52:35,-17.73,-149.15,84.2,74.0,20.0,15.32
west bay,ky,2020-03-14 12:52:35,19.37,-81.42,82.99,80.0,12.0,11.99
cururupu,br,2020-03-14 12:52:35,-1.83,-44.87,89.58,55.0,90.0,6.78
kaspiyskiy,ru,2020-03-14 12:52:35,45.39,47.37,51.78,65.0,100.0,4.21
cayenne,gf,2020-03-14 12:52:36,4.93,-52.33,87.8,58.0,90.0,11.41
timbiqui,co,2020-03-14 12:52:36,2.77,-77.67,83.64,75.0,81.0,5.03
havoysund,no,2020-03-14 12:52:36,71.0,24.66,21.2,62.0,100.0,20.8
bayji,iq,2020-03-14 12:52:36,34.93,43.49,59.34,82.0,100.0,14.58
itaituba,br,2020-03-14 12:52:36,-4.28,-55.98,85.44,86.0,83.0,2.86
balabac,ph,2020-03-14 12:52:36,7.99,117.06,78.6,80.0,11.0,7.34
kitimat,ca,2020-03-14 12:52:36,54.05,-128.65,21.2,31.0,5.0,16.11
nijar,es,2020-03-14 12:52:36,36.97,-2.21,62.6,82.0,20.0,9.17
pecos,us,2020-03-14 12:52:36,31.42,-103.49,69.01,45.0,1.0,3.36
tura,ru,2020-03-14 12:52:36,64.28,100.25,20.28,83.0,99.0,11.92
plaridel,ph,2020-03-14 12:52:37,14.89,120.86,82.4,69.0,75.0,4.7
padang,id,2020-03-14 12:52:37,-0.95,100.35,69.6,93.0,100.0,5.61
shaowu,cn,2020-03-14 12:52:37,27.34,117.48,44.04,82.0,0.0,2.95
meulaboh,id,2020-03-14 12:52:37,4.14,96.13,83.64,76.0,82.0,7.38
caucaia,br,2020-03-14 12:51:00,-3.74,-38.65,86.0,70.0,75.0,11.41
methoni,gr,2020-03-14 12:52:37,36.82,21.7,63.0,77.0,90.0,3.13
abrau-dyurso,ru,2020-03-14 12:52:37,44.69,37.59,41.0,75.0,20.0,4.47
merritt island,us,2020-03-14 12:49:50,28.54,-80.67,84.99,51.0,1.0,9.17
znamenskoye,ru,2020-03-14 12:52:38,57.13,73.83,35.22,89.0,97.0,12.62
kaitangata,nz,2020-03-14 12:52:13,-46.28,169.85,55.99,84.0,70.0,19.66
zhicheng,cn,2020-03-14 12:52:38,30.3,111.5,55.0,58.0,0.0,1.86
ndioum,sn,2020-03-14 12:52:38,16.51,-14.65,100.4,10.0,100.0,6.93
marsa matruh,eg,2020-03-14 12:52:38,31.35,27.25,61.5,88.0,45.0,9.98
manavalakurichi,in,2020-03-14 12:52:38,8.13,77.3,84.2,70.0,20.0,3.36
half moon bay,us,2020-03-14 12:52:38,37.46,-122.43,57.0,87.0,75.0,4.7
ayna,pe,2020-03-14 12:52:38,-12.65,-73.92,71.6,40.0,20.0,5.82
cherskiy,ru,2020-03-14 12:52:38,68.75,161.3,-13.38,77.0,28.0,6.02
san cristobal,ec,2020-03-14 12:52:39,-0.9,-89.62,84.2,79.0,75.0,4.7
bonthe,sl,2020-03-14 12:52:39,7.53,-12.51,84.18,69.0,4.0,12.77
buffalo,us,2020-03-14 12:47:53,42.89,-78.88,39.0,64.0,90.0,9.17
tabuk,sa,2020-03-14 12:52:39,28.38,36.58,60.8,55.0,40.0,13.87
bucerias,mx,2020-03-14 12:52:39,20.75,-105.33,78.8,69.0,5.0,8.05
cabo san lucas,mx,2020-03-14 12:52:39,22.89,-109.91,77.0,69.0,5.0,6.93
iralaya,hn,2020-03-14 12:52:39,15.0,-83.23,86.0,66.0,40.0,9.17
berlin,us,2020-03-14 12:52:39,44.47,-71.19,44.6,51.0,1.0,18.34
santa cruz cabralia,br,2020-03-14 12:52:39,-16.28,-39.02,86.0,62.0,40.0,9.17
saldanha,za,2020-03-14 12:52:39,-33.01,17.94,68.0,82.0,31.0,13.87
myitkyina,mm,2020-03-14 12:52:39,25.38,97.4,69.6,48.0,42.0,3.8
thibodaux,us,2020-03-14 12:52:39,29.8,-90.82,84.0,65.0,1.0,12.75
rawson,ar,2020-03-14 12:52:40,-43.3,-65.1,62.04,60.0,0.0,13.35
the valley,ai,2020-03-14 12:49:40,18.22,-63.06,82.4,69.0,40.0,5.82
kungurtug,ru,2020-03-14 12:52:40,50.6,97.52,10.02,70.0,50.0,4.41
jutai,br,2020-03-14 12:52:40,-5.18,-68.9,97.86,41.0,52.0,2.37
tezu,in,2020-03-14 12:52:40,27.92,96.17,67.62,57.0,100.0,2.21
hailar,cn,2020-03-14 12:52:40,49.2,119.7,-0.6,94.0,15.0,10.38
whitianga,nz,2020-03-14 12:52:40,-36.83,175.7,55.99,94.0,0.0,3.83
mahibadhoo,mv,2020-03-14 12:52:40,3.78,72.97,84.18,72.0,7.0,8.55
roald,no,2020-03-14 12:52:40,62.58,6.13,39.2,59.0,75.0,24.16
vilhena,br,2020-03-14 12:52:41,-12.74,-60.15,80.76,85.0,100.0,5.26
cedar city,us,2020-03-14 12:49:56,37.68,-113.06,46.4,61.0,90.0,19.46
ixtapa,mx,2020-03-14 12:52:41,20.7,-105.2,78.8,69.0,5.0,8.05
vila velha,br,2020-03-14 12:49:17,-20.33,-40.29,86.0,62.0,75.0,9.17
leh,in,2020-03-14 12:52:41,34.17,77.58,14.34,56.0,85.0,3.22
casian,ph,2020-03-14 12:52:41,11.04,119.71,75.0,87.0,28.0,4.76
langsa,id,2020-03-14 12:52:41,4.47,97.97,76.98,88.0,0.0,2.77
djambala,cg,2020-03-14 12:52:41,-2.54,14.75,78.78,57.0,100.0,5.3
sebina,bw,2020-03-14 12:52:42,-20.87,27.25,80.6,61.0,20.0,1.12
noumea,nc,2020-03-14 12:52:42,-22.28,166.46,81.0,100.0,100.0,2.24
maragogi,br,2020-03-14 12:52:42,-9.01,-35.22,83.64,66.0,94.0,9.44
senanga,zm,2020-03-14 12:52:42,-16.12,23.27,75.36,72.0,98.0,1.66
banda aceh,id,2020-03-14 12:52:42,5.56,95.32,75.9,88.0,84.0,2.71
vychegodskiy,ru,2020-03-14 12:52:42,61.25,46.9,19.74,85.0,100.0,5.48
pyay,mm,2020-03-14 12:52:42,18.82,95.22,76.62,33.0,31.0,1.25
almaznyy,ru,2020-03-14 12:52:42,48.04,40.05,46.4,52.0,9.0,6.71
makurdi,ng,2020-03-14 12:52:43,7.74,8.51,90.84,10.0,25.0,4.14
pingliang,cn,2020-03-14 12:52:43,35.54,106.69,33.78,42.0,80.0,2.08
bougouni,ml,2020-03-14 12:52:43,11.42,-7.48,98.4,6.0,4.0,4.03
ancud,cl,2020-03-14 12:52:43,-41.87,-73.82,60.8,55.0,40.0,4.7
sohag,eg,2020-03-14 12:52:43,26.56,31.69,62.76,58.0,0.0,8.39
susanville,us,2020-03-14 12:52:43,40.42,-120.65,37.99,52.0,90.0,17.22
ostersund,se,2020-03-14 12:48:42,63.18,14.64,26.6,45.0,69.0,9.17
alihe,cn,2020-03-14 12:52:46,50.57,123.72,-6.0,89.0,42.0,4.43
trencin,sk,2020-03-14 12:52:47,48.83,18.25,42.01,48.0,27.0,11.41
le port,re,2020-03-14 12:52:47,-20.94,55.29,78.8,83.0,75.0,10.29
antalaha,mg,2020-03-14 12:52:47,-14.9,50.28,78.42,92.0,100.0,45.59
chipinge,zw,2020-03-14 12:52:47,-20.19,32.62,71.04,61.0,24.0,7.2
synya,ru,2020-03-14 12:52:47,65.37,58.04,13.08,94.0,100.0,6.93
bandarbeyla,so,2020-03-14 12:52:47,9.49,50.81,78.78,81.0,9.0,14.7
khatra,in,2020-03-14 12:52:47,22.98,86.85,71.04,61.0,94.0,3.96
angoche,mz,2020-03-14 12:52:47,-16.23,39.91,75.18,92.0,19.0,3.85
sungaipenuh,id,2020-03-14 12:52:47,-2.08,101.38,64.38,97.0,95.0,2.91
huejuquilla el alto,mx,2020-03-14 12:52:48,22.6,-103.87,79.32,20.0,0.0,2.62
rio tuba,ph,2020-03-14 12:52:48,8.51,117.43,77.52,80.0,3.0,3.76
great yarmouth,gb,2020-03-14 12:52:48,52.61,1.73,51.01,87.0,40.0,14.99
gwadar,pk,2020-03-14 12:52:48,25.12,62.33,73.56,70.0,100.0,10.36
saint-ambroise,ca,2020-03-14 12:52:48,48.55,-71.33,23.0,67.0,90.0,36.91
olinda,br,2020-03-14 12:48:48,-8.01,-34.86,87.8,62.0,75.0,8.05
linares,mx,2020-03-14 12:52:49,24.86,-99.57,85.08,46.0,100.0,14.12
kannauj,in,2020-03-14 12:52:49,27.05,79.92,66.36,58.0,9.0,4.18
huarmey,pe,2020-03-14 12:52:49,-10.07,-78.15,84.9,48.0,84.0,13.24
leningradskiy,ru,2020-03-14 12:52:49,69.38,178.42,-11.04,74.0,0.0,4.83
superior,us,2020-03-14 12:52:49,46.72,-92.1,24.8,57.0,1.0,5.82
kaohsiung,tw,2020-03-14 12:51:30,22.62,120.31,66.2,63.0,75.0,6.93
erdenet,mn,2020-03-14 12:52:49,49.03,104.08,17.76,76.0,27.0,2.86
klyuchi,ru,2020-03-14 12:52:49,52.27,79.17,34.32,84.0,83.0,15.79
myanaung,mm,2020-03-14 12:49:05,18.28,95.32,76.98,35.0,50.0,3.91
haines junction,ca,2020-03-14 12:52:50,60.75,-137.51,15.78,68.0,22.0,2.68
sao joao da barra,br,2020-03-14 12:52:50,-21.64,-41.05,86.0,58.0,20.0,13.87
ostrovnoy,ru,2020-03-14 12:52:50,68.05,39.51,17.22,79.0,100.0,12.37
mosquera,co,2020-03-14 12:52:50,4.71,-74.23,69.8,46.0,40.0,5.82
bosaso,so,2020-03-14 12:52:50,11.28,49.18,76.98,85.0,65.0,15.61
pochutla,mx,2020-03-14 12:52:50,15.74,-96.47,90.0,48.0,20.0,11.41
ahuimanu,us,2020-03-14 12:52:32,21.44,-157.84,73.4,78.0,75.0,5.28
paita,pe,2020-03-14 12:52:50,-5.09,-81.11,62.6,100.0,40.0,13.87
eureka,us,2020-03-14 12:52:51,40.8,-124.16,46.99,87.0,75.0,10.29
plettenberg bay,za,2020-03-14 12:52:51,-34.05,23.37,66.54,85.0,42.0,5.68
sayyan,ye,2020-03-14 12:52:51,15.17,44.32,62.04,54.0,39.0,6.04
safranbolu,tr,2020-03-14 12:50:49,41.25,32.69,43.5,95.0,32.0,1.21
garissa,ke,2020-03-14 12:52:51,-0.45,39.64,90.3,45.0,100.0,7.72
hamilton,bm,2020-03-14 12:50:24,32.29,-64.78,72.0,77.0,75.0,4.7
katangli,ru,2020-03-14 12:52:51,51.71,143.23,10.2,96.0,100.0,3.36
mao,td,2020-03-14 12:52:51,14.12,15.31,76.44,9.0,2.0,11.07
auki,sb,2020-03-14 12:52:52,-8.77,160.7,83.82,78.0,96.0,17.2
kommunar,ru,2020-03-14 12:52:52,59.62,30.39,28.4,50.0,75.0,24.61
dunedin,nz,2020-03-14 12:52:52,-45.87,170.5,55.99,84.0,100.0,11.54
amos,ca,2020-03-14 12:52:52,48.57,-78.12,21.99,62.0,20.0,13.87
mangan,in,2020-03-14 12:52:52,27.52,88.53,44.04,73.0,100.0,4.41
moscow,us,2020-03-14 12:52:24,46.73,-117.0,30.99,86.0,90.0,9.17
ucluelet,ca,2020-03-14 12:51:21,48.93,-125.55,39.2,27.0,20.0,4.7
hami,cn,2020-03-14 12:52:52,42.8,93.45,36.66,31.0,87.0,2.91
skegness,gb,2020-03-14 12:52:52,53.14,0.34,52.0,81.0,40.0,13.87
nuzvid,in,2020-03-14 12:52:52,16.78,80.85,78.8,78.0,20.0,5.91
aketi,cd,2020-03-14 12:52:53,2.74,23.78,82.02,51.0,89.0,1.25
nova olimpia,br,2020-03-14 12:52:53,-14.8,-57.29,90.84,55.0,72.0,4.05
bata,gq,2020-03-14 12:52:53,1.86,9.77,78.42,85.0,97.0,1.99
makakilo city,us,2020-03-14 12:52:56,21.35,-158.09,73.4,78.0,75.0,5.28
yauya,pe,2020-03-14 12:52:56,-8.98,-77.3,53.94,56.0,98.0,6.69
frederiksvaerk,dk,2020-03-14 12:48:52,55.97,12.02,37.99,55.0,6.0,10.29
nicoya,cr,2020-03-14 12:52:56,10.15,-85.45,93.2,41.0,63.0,19.46
muli,mv,2020-03-14 12:52:56,2.92,73.57,84.54,67.0,64.0,8.01
luau,ao,2020-03-14 12:52:56,-10.71,22.22,66.54,97.0,87.0,1.72
mitsamiouli,km,2020-03-14 12:52:57,-11.38,43.28,83.46,75.0,100.0,6.96
boa vista,br,2020-03-14 12:52:57,2.82,-60.67,91.4,43.0,90.0,9.17
necochea,ar,2020-03-14 12:52:57,-38.55,-58.74,72.0,68.0,67.0,11.01
komsomolskiy,ru,2020-03-14 12:52:57,43.98,46.7,57.9,57.0,100.0,8.43
nemuro,jp,2020-03-14 12:52:57,43.32,145.57,30.18,90.0,100.0,10.54
biak,id,2020-03-14 12:52:57,-0.91,122.88,82.02,74.0,99.0,8.21
zhuhai,cn,2020-03-14 12:52:57,22.28,113.57,70.0,56.0,40.0,11.41
canto do buriti,br,2020-03-14 12:52:57,-8.11,-42.94,85.8,63.0,12.0,6.8
vallenar,cl,2020-03-14 12:52:58,-28.57,-70.76,79.5,41.0,72.0,10.83
teguise,es,2020-03-14 12:52:58,29.06,-13.56,69.8,52.0,20.0,17.22
iracoubo,gf,2020-03-14 12:52:58,5.48,-53.2,80.58,74.0,50.0,12.39
starkville,us,2020-03-14 12:50:27,33.45,-88.82,72.0,77.0,75.0,8.05
olden,no,2020-03-14 12:52:58,61.84,6.81,35.6,55.0,75.0,8.05
garowe,so,2020-03-14 12:52:58,8.41,48.48,73.2,84.0,19.0,19.33
coolum beach,au,2020-03-14 12:52:58,-26.53,153.1,66.99,73.0,48.0,6.96
yar-sale,ru,2020-03-14 12:52:59,66.83,70.83,8.04,91.0,100.0,18.52
clinton,us,2020-03-14 12:50:02,42.59,-82.92,37.99,64.0,90.0,6.93
verkhnevilyuysk,ru,2020-03-14 12:52:59,63.45,120.32,6.24,95.0,100.0,7.72
vardo,no,2020-03-14 12:52:59,70.37,31.11,19.56,78.0,100.0,14.85
barra do garcas,br,2020-03-14 12:48:57,-15.89,-52.26,93.2,49.0,75.0,6.93
kyren,ru,2020-03-14 12:52:59,51.68,102.14,20.46,77.0,81.0,10.16
tateyama,jp,2020-03-14 12:52:59,34.98,139.87,39.99,93.0,75.0,5.82
lakes entrance,au,2020-03-14 12:52:59,-37.88,147.98,43.0,94.0,0.0,9.69
marienburg,sr,2020-03-14 12:52:59,5.85,-55.02,91.4,55.0,40.0,9.17
conceicao do araguaia,br,2020-03-14 12:52:59,-8.26,-49.26,79.5,80.0,100.0,3.8
pangai,to,2020-03-14 12:52:59,-19.8,-174.35,81.66,80.0,100.0,13.6
chor,pk,2020-03-14 12:53:00,25.52,69.77,72.66,19.0,8.0,7.99
batagay-alyta,ru,2020-03-14 12:53:00,67.8,130.41,-27.24,84.0,0.0,4.52
dhuburi,in,2020-03-14 12:53:00,26.03,89.97,69.96,68.0,100.0,1.34
poya,nc,2020-03-14 12:53:00,-21.35,165.15,81.48,81.0,84.0,12.15
paamiut,gl,2020-03-14 12:53:00,61.99,-49.67,11.28,67.0,61.0,11.21
yumen,cn,2020-03-14 12:53:00,40.28,97.2,37.38,23.0,100.0,13.11
cabrero,cl,2020-03-14 12:53:00,-37.03,-72.4,75.2,31.0,5.0,18.34
kwekwe,zw,2020-03-14 12:53:00,-18.93,29.81,68.52,84.0,100.0,4.61
saint george,bm,2020-03-14 12:53:00,32.38,-64.68,72.0,77.0,75.0,4.7
wagar,sd,2020-03-14 12:53:00,16.15,36.2,78.6,11.0,100.0,12.46
hofn,is,2020-03-14 12:52:58,64.25,-15.21,32.34,62.0,100.0,21.32
gubkinskiy,ru,2020-03-14 12:53:01,64.43,76.5,29.64,94.0,97.0,13.24
nuuk,gl,2020-03-14 12:53:01,64.18,-51.72,10.4,51.0,40.0,8.05
zwedru,lr,2020-03-14 12:53:01,6.07,-8.13,83.1,73.0,96.0,6.17
adrar,dz,2020-03-14 12:53:01,25.75,-1.0,75.9,10.0,0.0,2.82
la rioja,ar,2020-03-14 12:53:01,-29.41,-66.85,80.94,40.0,20.0,16.24
rodrigues alves,br,2020-03-14 12:53:01,-7.74,-72.65,84.72,89.0,100.0,2.04
karratha,au,2020-03-14 12:53:01,-20.74,116.85,83.1,79.0,54.0,14.16
curvelo,br,2020-03-14 12:53:02,-18.76,-44.43,80.58,68.0,38.0,4.97
omboue,ga,2020-03-14 12:53:02,-1.57,9.26,79.5,89.0,100.0,3.47
saint-pierre,pm,2020-03-14 12:53:02,46.77,-56.17,37.4,85.0,33.0,23.04
taunggyi,mm,2020-03-14 12:53:02,20.78,97.03,66.0,36.0,31.0,3.94
athabasca,ca,2020-03-14 12:53:02,54.72,-113.29,-0.24,81.0,72.0,4.21
formosa do rio preto,br,2020-03-14 12:50:33,-11.05,-45.19,77.16,92.0,96.0,5.59
san patricio,mx,2020-03-14 12:53:02,19.22,-104.7,86.0,74.0,75.0,5.57
los llanos de aridane,es,2020-03-14 12:53:02,28.66,-17.92,66.2,63.0,40.0,10.29
richards bay,za,2020-03-14 12:53:02,-28.78,32.04,79.68,85.0,6.0,12.57
laramie,us,2020-03-14 12:53:03,41.31,-105.59,39.2,100.0,75.0,3.36
gladstone,au,2020-03-14 12:52:35,-23.85,151.25,73.4,60.0,75.0,8.05
waterloo,us,2020-03-14 12:53:03,42.49,-92.34,33.01,86.0,90.0,9.17
presidente venceslau,br,2020-03-14 12:53:03,-21.88,-51.84,87.78,54.0,2.0,5.7
makat,kz,2020-03-14 12:53:03,47.65,53.35,58.62,45.0,100.0,10.18
temir,kz,2020-03-14 12:53:03,49.14,57.13,40.26,78.0,98.0,13.82
mestia,ge,2020-03-14 12:53:03,43.05,42.73,33.42,99.0,100.0,2.19
fairbanks,us,2020-03-14 12:51:16,64.84,-147.72,17.01,84.0,90.0,4.7
pushkinskiye gory,ru,2020-03-14 12:55:35,57.02,28.91,23.52,57.0,5.0,6.46
timberlake,us,2020-03-14 12:55:35,37.32,-79.26,59.0,26.0,90.0,8.05
kloulklubed,pw,2020-03-14 12:55:35,7.04,134.26,75.2,94.0,75.0,4.7
hvolsvollur,is,2020-03-14 12:55:35,63.75,-20.22,32.0,93.0,75.0,11.41
san ramon de la nueva oran,ar,2020-03-14 12:55:35,-23.13,-64.33,102.0,41.0,85.0,1.99
jorpeland,no,2020-03-14 12:55:36,59.02,6.04,39.2,69.0,75.0,17.22
nador,ma,2020-03-14 12:55:36,35.17,-2.93,62.6,77.0,40.0,5.82
hasaki,jp,2020-03-14 12:55:36,35.73,140.83,35.6,93.0,75.0,4.7
balkhash,kz,2020-03-14 12:55:36,46.84,74.98,32.16,77.0,0.0,6.42
ardakan,ir,2020-03-14 12:55:36,32.31,54.02,68.0,28.0,20.0,6.93
nanortalik,gl,2020-03-14 12:55:36,60.14,-45.24,22.8,66.0,68.0,13.65
dawei,mm,2020-03-14 12:55:36,14.08,98.2,81.12,70.0,19.0,4.54
itamarandiba,br,2020-03-14 12:55:37,-17.86,-42.86,75.0,87.0,67.0,4.07
xiaoweizhai,cn,2020-03-14 12:55:37,26.19,107.51,49.98,79.0,55.0,2.24
boyuibe,bo,2020-03-14 12:55:37,-20.42,-63.28,95.0,32.0,40.0,11.41
berlevag,no,2020-03-14 12:55:37,70.86,29.09,24.06,67.0,100.0,16.98
chkalovskoye,ru,2020-03-14 12:55:37,44.84,133.04,23.52,96.0,100.0,5.19
oudtshoorn,za,2020-03-14 12:55:37,-33.59,22.2,66.2,88.0,75.0,5.82
grindavik,is,2020-03-14 12:55:37,63.84,-22.43,30.2,68.0,40.0,16.11
medicine hat,ca,2020-03-14 12:55:37,50.05,-110.67,10.0,77.0,90.0,14.99
san pedro de ycuamandiyu,py,2020-03-14 12:55:37,-24.09,-57.08,107.76,16.0,49.0,5.12
kutum,sd,2020-03-14 12:55:37,14.2,24.67,65.64,16.0,1.0,4.47
erfurt,de,2020-03-14 12:55:38,50.98,11.03,45.0,56.0,20.0,4.7
bukama,cd,2020-03-14 12:55:38,-9.2,25.85,69.78,93.0,99.0,2.17
esso,ru,2020-03-14 12:55:38,55.93,158.7,-9.06,93.0,0.0,4.74
denpasar,id,2020-03-14 12:55:38,-8.65,115.22,80.6,100.0,20.0,3.36
loja,es,2020-03-14 12:55:41,37.17,-4.15,73.4,38.0,20.0,6.93
cananea,mx,2020-03-14 12:55:41,30.95,-110.3,57.0,53.0,1.0,5.01
washim,in,2020-03-14 12:55:41,20.1,77.15,77.88,12.0,0.0,14.45
zabol,ir,2020-03-14 12:55:41,31.03,61.5,62.6,45.0,93.0,4.7
petatlan,mx,2020-03-14 12:55:41,17.52,-101.27,89.6,52.0,20.0,3.36
mugur-aksy,ru,2020-03-14 12:55:41,50.35,90.5,6.6,64.0,9.0,5.03
mlowo,tz,2020-03-14 12:55:42,-9.0,32.98,62.58,96.0,79.0,1.43
akcakoca,tr,2020-03-14 12:55:42,41.09,31.12,45.84,95.0,40.0,1.61
yakeshi,cn,2020-03-14 12:55:42,49.28,120.73,-6.9,89.0,31.0,6.11
aleksandrov gay,ru,2020-03-14 12:55:42,50.15,48.57,42.78,80.0,100.0,17.47
sri aman,my,2020-03-14 12:55:42,1.24,111.46,77.0,94.0,100.0,1.57
gunupur,in,2020-03-14 12:55:42,19.08,83.82,72.66,74.0,60.0,3.27
hovd,mn,2020-03-14 12:55:42,48.01,91.64,21.72,43.0,0.0,9.01
esmeraldas,ec,2020-03-14 12:55:43,-1.87,-79.8,80.6,78.0,75.0,4.7
boffa,gn,2020-03-14 12:55:43,10.17,-14.03,84.0,63.0,76.0,10.83
kundiawa,pg,2020-03-14 12:55:43,-6.02,144.97,53.76,97.0,99.0,1.92
kerman,ir,2020-03-14 12:51:40,30.28,57.08,59.0,19.0,40.0,9.17
nabire,id,2020-03-14 12:55:43,-3.37,135.48,72.12,99.0,100.0,0.74
waipawa,nz,2020-03-14 12:55:43,-41.41,175.52,54.0,87.0,0.0,4.7
mananara,mg,2020-03-14 12:55:43,-16.17,49.77,81.12,83.0,100.0,37.04
mount isa,au,2020-03-14 12:55:44,-20.73,139.5,75.2,47.0,51.0,6.93
oistins,bb,2020-03-14 12:54:03,13.07,-59.53,84.2,62.0,75.0,16.11
najran,sa,2020-03-14 12:55:44,17.49,44.13,86.0,30.0,40.0,9.17
pisco,pe,2020-03-14 12:55:44,-13.7,-76.22,77.0,30.0,40.0,9.17
thanh hoa,vn,2020-03-14 12:55:44,19.8,105.77,67.44,82.0,98.0,5.77
brasileia,br,2020-03-14 12:55:44,-11.02,-68.75,91.4,63.0,75.0,4.7
awbari,ly,2020-03-14 12:55:44,26.59,12.78,67.26,16.0,1.0,6.35
calvinia,za,2020-03-14 12:55:45,-31.47,19.78,65.82,46.0,0.0,9.37
linqing,cn,2020-03-14 12:55:45,36.85,115.71,47.64,24.0,0.0,8.3
nouadhibou,mr,2020-03-14 12:55:45,20.93,-17.03,73.4,64.0,0.0,20.8
antsohihy,mg,2020-03-14 12:55:45,-14.88,47.99,77.88,92.0,100.0,0.43
vammala,fi,2020-03-14 12:55:45,61.33,22.9,27.0,45.0,3.0,4.7
suzun,ru,2020-03-14 12:55:45,53.78,82.31,31.62,83.0,100.0,15.59
arlit,ne,2020-03-14 12:55:45,18.74,7.39,80.04,9.0,0.0,9.51
lagos,pt,2020-03-14 12:54:11,37.1,-8.67,61.0,82.0,20.0,4.7
vanimo,pg,2020-03-14 12:55:45,-2.67,141.3,82.38,77.0,100.0,14.74
zhigansk,ru,2020-03-14 12:55:46,66.77,123.37,-7.62,91.0,95.0,22.66
bahir dar,et,2020-03-14 12:55:46,11.59,37.39,72.84,41.0,92.0,11.59
effium,ng,2020-03-14 12:55:46,6.63,8.06,91.56,11.0,33.0,2.42
sao felix do xingu,br,2020-03-14 12:55:46,-6.64,-51.99,82.56,84.0,100.0,2.39
zaraza,ve,2020-03-14 12:55:46,9.35,-65.32,94.62,33.0,47.0,11.36
nishihara,jp,2020-03-14 12:55:46,26.18,127.76,59.0,54.0,75.0,24.16
chifeng,cn,2020-03-14 12:55:47,42.27,118.96,25.86,64.0,31.0,12.19
thinadhoo,mv,2020-03-14 12:55:47,0.53,72.93,84.0,61.0,13.0,5.08
san vicente,ph,2020-03-14 12:55:47,15.3,120.65,78.8,88.0,75.0,2.24
mezen,ru,2020-03-14 12:55:47,65.85,44.24,17.76,80.0,100.0,11.61
quiruvilca,pe,2020-03-14 12:55:47,-7.97,-78.2,58.8,54.0,88.0,3.67
vanavara,ru,2020-03-14 12:55:47,60.34,102.28,28.56,95.0,100.0,10.27
enid,us,2020-03-14 12:51:07,36.4,-97.88,45.0,100.0,90.0,9.17
novyy svit,ua,2020-03-14 12:55:48,47.81,38.02,47.64,46.0,2.0,10.76
albury,au,2020-03-14 12:54:04,-36.08,146.92,53.6,58.0,0.0,4.7
zhanaozen,kz,2020-03-14 12:55:48,43.3,52.8,63.12,29.0,100.0,22.77
taltal,cl,2020-03-14 12:55:48,-25.4,-70.48,69.06,67.0,0.0,8.05
rocha,uy,2020-03-14 12:55:48,-34.48,-54.33,89.58,44.0,35.0,12.53
grajau,br,2020-03-14 12:55:48,-5.82,-46.14,84.18,79.0,87.0,4.43
santa maria,cv,2020-03-14 12:55:48,16.6,-22.9,80.6,51.0,51.0,14.99
port hedland,au,2020-03-14 12:55:49,-20.32,118.57,80.6,88.0,7.0,6.93
santa cruz,us,2020-03-14 12:55:01,36.97,-122.03,57.99,87.0,90.0,10.74
leshukonskoye,ru,2020-03-14 12:55:49,64.9,45.76,18.84,93.0,100.0,10.02
mundgod,in,2020-03-14 12:55:49,14.97,75.03,72.48,49.0,0.0,7.11
wanlaweyn,so,2020-03-14 12:55:49,2.62,44.89,81.12,75.0,97.0,17.38
anadyr,ru,2020-03-14 12:55:49,64.75,177.48,21.2,73.0,24.0,20.13
nikolayevsk-na-amure,ru,2020-03-14 12:55:49,53.14,140.73,-2.94,99.0,81.0,3.02
aripuana,br,2020-03-14 12:55:49,-9.17,-60.63,75.9,97.0,100.0,3.76
johnstown,us,2020-03-14 12:54:25,40.33,-78.92,48.99,26.0,1.0,5.82
santiago,co,2020-03-14 12:55:50,1.15,-77.0,58.62,90.0,100.0,1.41
marica,br,2020-03-14 12:52:19,-22.92,-42.82,86.0,78.0,40.0,13.87
carauari,br,2020-03-14 12:55:50,-4.88,-66.9,97.68,43.0,100.0,2.37
along,in,2020-03-14 12:55:50,28.17,94.77,63.66,73.0,99.0,2.66
kampot,kh,2020-03-14 12:54:30,10.62,104.18,78.8,88.0,20.0,3.36
blagoyevo,ru,2020-03-14 12:55:50,63.37,47.92,15.42,91.0,91.0,7.92
ust-omchug,ru,2020-03-14 12:55:50,61.15,149.63,-11.76,98.0,100.0,5.99
sambava,mg,2020-03-14 12:55:50,-14.27,50.17,73.56,97.0,100.0,4.79
nadym,ru,2020-03-14 12:55:50,65.53,72.52,15.78,96.0,99.0,19.3
veraval,in,2020-03-14 12:55:50,20.9,70.37,67.8,59.0,47.0,3.85
nanakuli,us,2020-03-14 12:55:51,21.39,-158.15,73.4,78.0,75.0,5.28
ojinaga,mx,2020-03-14 12:55:51,29.57,-104.42,75.99,31.0,1.0,4.7
iquique,cl,2020-03-14 12:55:51,-20.22,-70.14,77.0,57.0,51.0,13.87
lewistown,us,2020-03-14 12:55:51,40.6,-77.57,52.0,34.0,1.0,7.02
wamba,cd,2020-03-14 12:55:51,2.15,27.99,73.92,80.0,91.0,1.81
domoni,km,2020-03-14 12:55:51,-12.26,44.53,85.62,71.0,79.0,8.88
coihaique,cl,2020-03-14 12:55:51,-45.58,-72.07,60.8,51.0,40.0,9.17
nizhniy tsasuchey,ru,2020-03-14 12:55:52,50.52,115.13,12.18,69.0,0.0,3.38
taoudenni,ml,2020-03-14 12:55:52,22.68,-3.98,88.86,6.0,0.0,7.9
port hueneme,us,2020-03-14 12:55:52,34.15,-119.2,59.0,82.0,90.0,4.7
jiuquan,cn,2020-03-14 12:55:52,39.74,98.52,30.18,34.0,83.0,7.58
jinka,et,2020-03-14 12:55:52,5.65,36.65,77.16,61.0,82.0,4.36
belyy yar,ru,2020-03-14 12:55:52,53.6,91.39,33.8,74.0,72.0,8.95
crossville,us,2020-03-14 12:55:52,35.95,-85.03,57.2,50.0,90.0,5.82
kodinar,in,2020-03-14 12:55:52,20.79,70.7,67.8,59.0,47.0,3.85
zhenlai,cn,2020-03-14 12:55:52,45.85,123.3,17.04,57.0,67.0,24.58
kalmar,se,2020-03-14 12:55:52,56.66,16.36,34.0,64.0,0.0,5.82
kayerkan,ru,2020-03-14 12:55:53,69.35,87.76,32.0,97.0,75.0,26.84
slave lake,ca,2020-03-14 12:55:53,55.28,-114.77,-9.4,76.0,1.0,4.7
gorno-altaysk,ru,2020-03-14 12:55:53,51.96,85.95,34.86,68.0,90.0,8.16
rongcheng,cn,2020-03-14 12:55:53,30.63,117.85,45.3,77.0,45.0,3.33
sinnamary,gf,2020-03-14 12:55:53,5.38,-52.95,80.58,74.0,50.0,12.39
cabedelo,br,2020-03-14 12:55:53,-6.98,-34.83,86.0,66.0,20.0,12.75
price,us,2020-03-14 12:55:53,39.6,-110.81,44.01,86.0,90.0,3.36
sidney,us,2020-03-14 12:55:53,40.28,-84.16,37.99,53.0,40.0,3.36
beaupre,ca,2020-03-14 12:55:54,47.04,-70.9,33.01,54.0,75.0,18.34
lincoln,ar,2020-03-14 12:55:54,-34.87,-61.53,74.28,45.0,83.0,16.22
launceston,au,2020-03-14 12:55:54,-41.45,147.17,48.99,81.0,0.0,0.96
palatka,ru,2020-03-14 12:55:54,60.1,150.9,-3.3,94.0,100.0,4.88
oyama,jp,2020-03-14 12:55:54,36.3,139.8,42.01,63.0,20.0,1.12
romny,ru,2020-03-14 12:55:54,50.73,129.29,5.88,93.0,100.0,7.9
manvi,in,2020-03-14 12:55:54,15.98,77.05,80.4,45.0,50.0,11.5
micheweni,tz,2020-03-14 12:55:54,-4.97,39.83,84.54,79.0,25.0,14.47
jaguarari,br,2020-03-14 12:55:54,-10.26,-40.2,87.6,47.0,98.0,9.19
ruteng,id,2020-03-14 12:55:55,-8.61,120.47,67.08,93.0,81.0,2.86
panama city,us,2020-03-14 12:55:44,30.16,-85.66,80.01,50.0,1.0,4.7
linfen,cn,2020-03-14 12:55:55,36.09,111.52,46.92,21.0,0.0,2.66
escanaba,us,2020-03-14 12:53:59,45.75,-87.06,30.0,68.0,90.0,3.36
bilma,ne,2020-03-14 12:54:39,18.69,12.92,71.58,13.0,0.0,7.29
seymchan,ru,2020-03-14 12:55:55,62.88,152.43,-8.88,94.0,100.0,9.55
